[
  {
    "id": 1004993580,
    "city": "Kabul",
    "city_ascii": "Kabul",
    "lat": 34.5328,
    "lng": 69.1658,
    "country": "Afghanistan",
    "iso2": "AF",
    "iso3": "AFG",
    "admin_name": "K\u0101bul",
    "capital": "primary",
    "population": 4273156.0,
    "is_territory": false,
    "continent": "Asia",
    "guessable": true,
    "rank": 1.0
  },
  {
    "id": 1008162156,
    "city": "Tirana",
    "city_ascii": "Tirana",
    "lat": 41.33,
    "lng": 19.82,
    "country": "Albania",
    "iso2": "AL",
    "iso3": "ALB",
    "admin_name": "Tiran\u00eb",
    "capital": "primary",
    "population": 418495.0,
    "is_territory": false,
    "continent": "Europe",
    "guessable": true,
    "rank": 1.0
  },
  {
    "id": 1012973369,
    "city": "Algiers",
    "city_ascii": "Algiers",
    "lat": 36.7764,
    "lng": 3.0586,
    "country": "Algeria",
    "iso2": "DZ",
    "iso3": "DZA",
    "admin_name": "Alger",
    "capital": "primary",
    "population": 3415811.0,
    "is_territory": false,
    "continent": "Africa",
    "guessable": true,
    "rank": 1.0
  },
  {
    "id": 1020828846,
    "city": "Andorra la Vella",
    "city_ascii": "Andorra la Vella",
    "lat": 42.5,
    "lng": 1.5,
    "country": "Andorra",
    "iso2": "AD",
    "iso3": "AND",
    "admin_name": "Andorra la Vella",
    "capital": "primary",
    "population": 22615.0,
    "is_territory": false,
    "continent": "Europe",
    "guessable": true,
    "rank": 1.0
  },
  {
    "id": 1024949724,
    "city": "Luanda",
    "city_ascii": "Luanda",
    "lat": -8.8383,
    "lng": 13.2344,
    "country": "Angola",
    "iso2": "AO",
    "iso3": "AGO",
    "admin_name": "Luanda",
    "capital": "primary",
    "population": 8883000.0,
    "is_territory": false,
    "continent": "Africa",
    "guessable": false,
    "rank": 1.0
  },
  {
    "id": 1028912067,
    "city": "Saint John\u2019s",
    "city_ascii": "Saint John's",
    "lat": 17.1211,
    "lng": -61.8447,
    "country": "Antigua and Barbuda",
    "iso2": "AG",
    "iso3": "ATG",
    "admin_name": "Saint John",
    "capital": "primary",
    "population": 21926.0,
    "is_territory": false,
    "continent": "North America",
    "guessable": false,
    "rank": 1.0
  },
  {
    "id": 1032717330,
    "city": "Buenos Aires",
    "city_ascii": "Buenos Aires",
    "lat": -34.5997,
    "lng": -58.3819,
    "country": "Argentina",
    "iso2": "AR",
    "iso3": "ARG",
    "admin_name": "Buenos Aires, Ciudad Aut\u00f3noma de",
    "capital": "primary",
    "population": 16216000.0,
    "is_territory": false,
    "continent": "South America",
    "guessable": true,
    "rank": 1.0
  },
  {
    "id": 1051074169,
    "city": "Yerevan",
    "city_ascii": "Yerevan",
    "lat": 40.1814,
    "lng": 44.5144,
    "country": "Armenia",
    "iso2": "AM",
    "iso3": "ARM",
    "admin_name": "Yerevan",
    "capital": "primary",
    "population": 1075800.0,
    "is_territory": false,
    "continent": "Asia",
    "guessable": false,
    "rank": 1.0
  },
  {
    "id": 1036142029,
    "city": "Canberra",
    "city_ascii": "Canberra",
    "lat": -35.2931,
    "lng": 149.1269,
    "country": "Australia",
    "iso2": "AU",
    "iso3": "AUS",
    "admin_name": "Australian Capital Territory",
    "capital": "primary",
    "population": 381488.0,
    "is_territory": false,
    "continent": "Oceania",
    "guessable": true,
    "rank": 8.0
  },
  {
    "id": 1040261752,
    "city": "Vienna",
    "city_ascii": "Vienna",
    "lat": 48.2083,
    "lng": 16.3725,
    "country": "Austria",
    "iso2": "AT",
    "iso3": "AUT",
    "admin_name": "Wien",
    "capital": "primary",
    "population": 1911191.0,
    "is_territory": false,
    "continent": "Europe",
    "guessable": true,
    "rank": 1.0
  },
  {
    "id": 1031946365,
    "city": "Baku",
    "city_ascii": "Baku",
    "lat": 40.3667,
    "lng": 49.8352,
    "country": "Azerbaijan",
    "iso2": "AZ",
    "iso3": "AZE",
    "admin_name": "Bak\u0131",
    "capital": "primary",
    "population": 2181800.0,
    "is_territory": false,
    "continent": "Asia",
    "guessable": true,
    "rank": 1.0
  },
  {
    "id": 1048989486,
    "city": "Manama",
    "city_ascii": "Manama",
    "lat": 26.225,
    "lng": 50.5775,
    "country": "Bahrain",
    "iso2": "BH",
    "iso3": "BHR",
    "admin_name": "Al \u2018\u0100\u015fimah",
    "capital": "primary",
    "population": 157474.0,
    "is_territory": false,
    "continent": "Asia",
    "guessable": false,
    "rank": 1.0
  },
  {
    "id": 1050529279,
    "city": "Dhaka",
    "city_ascii": "Dhaka",
    "lat": 23.7289,
    "lng": 90.3944,
    "country": "Bangladesh",
    "iso2": "BD",
    "iso3": "BGD",
    "admin_name": "Dhaka",
    "capital": "primary",
    "population": 16839000.0,
    "is_territory": false,
    "continent": "Asia",
    "guessable": true,
    "rank": 1.0
  },
  {
    "id": 1052274244,
    "city": "Bridgetown",
    "city_ascii": "Bridgetown",
    "lat": 13.0975,
    "lng": -59.6167,
    "country": "Barbados",
    "iso2": "BB",
    "iso3": "BRB",
    "admin_name": "Saint Michael",
    "capital": "primary",
    "population": 110000.0,
    "is_territory": false,
    "continent": "North America",
    "guessable": false,
    "rank": 1.0
  },
  {
    "id": 1112348503,
    "city": "Minsk",
    "city_ascii": "Minsk",
    "lat": 53.9022,
    "lng": 27.5618,
    "country": "Belarus",
    "iso2": "BY",
    "iso3": "BLR",
    "admin_name": "Minsk",
    "capital": "primary",
    "population": 2009786.0,
    "is_territory": false,
    "continent": "Europe",
    "guessable": true,
    "rank": 1.0
  },
  {
    "id": 1056469830,
    "city": "Brussels",
    "city_ascii": "Brussels",
    "lat": 50.8353,
    "lng": 4.3314,
    "country": "Belgium",
    "iso2": "BE",
    "iso3": "BEL",
    "admin_name": "Brussels-Capital Region",
    "capital": "primary",
    "population": 1743000.0,
    "is_territory": false,
    "continent": "Europe",
    "guessable": true,
    "rank": 1.0
  },
  {
    "id": 1084586375,
    "city": "Belmopan",
    "city_ascii": "Belmopan",
    "lat": 17.25,
    "lng": -88.7675,
    "country": "Belize",
    "iso2": "BZ",
    "iso3": "BLZ",
    "admin_name": "Cayo",
    "capital": "primary",
    "population": 17222.0,
    "is_territory": false,
    "continent": "North America",
    "guessable": false,
    "rank": 3.0
  },
  {
    "id": 1204172060,
    "city": "Porto-Novo",
    "city_ascii": "Porto-Novo",
    "lat": 6.4833,
    "lng": 2.6167,
    "country": "Benin",
    "iso2": "BJ",
    "iso3": "BEN",
    "admin_name": "Ou\u00e9m\u00e9",
    "capital": "primary",
    "population": 300000.0,
    "is_territory": false,
    "continent": "Africa",
    "guessable": false,
    "rank": 2.0
  },
  {
    "id": 1064010361,
    "city": "Thimphu",
    "city_ascii": "Thimphu",
    "lat": 27.4833,
    "lng": 89.6333,
    "country": "Bhutan",
    "iso2": "BT",
    "iso3": "BTN",
    "admin_name": "Thimphu",
    "capital": "primary",
    "population": 104000.0,
    "is_territory": false,
    "continent": "Asia",
    "guessable": false,
    "rank": 1.0
  },
  {
    "id": 1068000064,
    "city": "La Paz",
    "city_ascii": "La Paz",
    "lat": -16.4942,
    "lng": -68.1475,
    "country": "Bolivia",
    "iso2": "BO",
    "iso3": "BOL",
    "admin_name": "La Paz",
    "capital": "primary",
    "population": 2867504.0,
    "is_territory": false,
    "continent": "South America",
    "guessable": true,
    "rank": 2.0
  },
  {
    "id": 1070966777,
    "city": "Sarajevo",
    "city_ascii": "Sarajevo",
    "lat": 43.8563,
    "lng": 18.4132,
    "country": "Bosnia and Herzegovina",
    "iso2": "BA",
    "iso3": "BIH",
    "admin_name": "Bosnia and Herzegovina, Federation of",
    "capital": "primary",
    "population": 275524.0,
    "is_territory": false,
    "continent": "Europe",
    "guessable": true,
    "rank": 1.0
  },
  {
    "id": 1072756768,
    "city": "Gaborone",
    "city_ascii": "Gaborone",
    "lat": -24.6569,
    "lng": 25.9086,
    "country": "Botswana",
    "iso2": "BW",
    "iso3": "BWA",
    "admin_name": "Gaborone",
    "capital": "primary",
    "population": 231626.0,
    "is_territory": false,
    "continent": "Africa",
    "guessable": false,
    "rank": 1.0
  },
  {
    "id": 1076144436,
    "city": "Bras\u00edlia",
    "city_ascii": "Brasilia",
    "lat": -15.7939,
    "lng": -47.8828,
    "country": "Brazil",
    "iso2": "BR",
    "iso3": "BRA",
    "admin_name": "Distrito Federal",
    "capital": "primary",
    "population": 3015268.0,
    "is_territory": false,
    "continent": "South America",
    "guessable": true,
    "rank": 4.0
  },
  {
    "id": 1096465895,
    "city": "Bandar Seri Begawan",
    "city_ascii": "Bandar Seri Begawan",
    "lat": 4.9167,
    "lng": 114.9167,
    "country": "Brunei",
    "iso2": "BN",
    "iso3": "BRN",
    "admin_name": "Brunei and Muara",
    "capital": "primary",
    "population": 50000.0,
    "is_territory": false,
    "continent": "Asia",
    "guessable": false,
    "rank": 1.0
  },
  {
    "id": 1100762037,
    "city": "Sofia",
    "city_ascii": "Sofia",
    "lat": 42.6979,
    "lng": 23.3217,
    "country": "Bulgaria",
    "iso2": "BG",
    "iso3": "BGR",
    "admin_name": "Sofia-Grad",
    "capital": "primary",
    "population": 1277411.0,
    "is_territory": false,
    "continent": "Europe",
    "guessable": true,
    "rank": 1.0
  },
  {
    "id": 1854029208,
    "city": "Ouagadougou",
    "city_ascii": "Ouagadougou",
    "lat": 12.3686,
    "lng": -1.5275,
    "country": "Burkina Faso",
    "iso2": "BF",
    "iso3": "BFA",
    "admin_name": "Centre",
    "capital": "primary",
    "population": 2453496.0,
    "is_territory": false,
    "continent": "Africa",
    "guessable": false,
    "rank": 1.0
  },
  {
    "id": 1108778000,
    "city": "Gitega",
    "city_ascii": "Gitega",
    "lat": -3.4283,
    "lng": 29.925,
    "country": "Burundi",
    "iso2": "BI",
    "iso3": "BDI",
    "admin_name": "Gitega",
    "capital": "primary",
    "population": 41944.0,
    "is_territory": false,
    "continent": "Africa",
    "guessable": false,
    "rank": 2.0
  },
  {
    "id": 1132398770,
    "city": "Praia",
    "city_ascii": "Praia",
    "lat": 14.9177,
    "lng": -23.5092,
    "country": "Cabo Verde",
    "iso2": "CV",
    "iso3": "CPV",
    "admin_name": "Praia",
    "capital": "primary",
    "population": 127832.0,
    "is_territory": false,
    "continent": "Africa",
    "guessable": false,
    "rank": 1.0
  },
  {
    "id": 1116260534,
    "city": "Phnom Penh",
    "city_ascii": "Phnom Penh",
    "lat": 11.5696,
    "lng": 104.921,
    "country": "Cambodia",
    "iso2": "KH",
    "iso3": "KHM",
    "admin_name": "Phnom Penh",
    "capital": "primary",
    "population": 2129371.0,
    "is_territory": false,
    "continent": "Asia",
    "guessable": true,
    "rank": 1.0
  },
  {
    "id": 1120298240,
    "city": "Yaound\u00e9",
    "city_ascii": "Yaounde",
    "lat": 3.8578,
    "lng": 11.5181,
    "country": "Cameroon",
    "iso2": "CM",
    "iso3": "CMR",
    "admin_name": "Centre",
    "capital": "primary",
    "population": 2440462.0,
    "is_territory": false,
    "continent": "Africa",
    "guessable": false,
    "rank": 2.0
  },
  {
    "id": 1124399363,
    "city": "Ottawa",
    "city_ascii": "Ottawa",
    "lat": 45.4247,
    "lng": -75.695,
    "country": "Canada",
    "iso2": "CA",
    "iso3": "CAN",
    "admin_name": "Ontario",
    "capital": "primary",
    "population": 989567.0,
    "is_territory": false,
    "continent": "North America",
    "guessable": true,
    "rank": 6.0
  },
  {
    "id": 1140080881,
    "city": "Bangui",
    "city_ascii": "Bangui",
    "lat": 4.3732,
    "lng": 18.5628,
    "country": "Central African Republic",
    "iso2": "CF",
    "iso3": "CAF",
    "admin_name": "Bangui",
    "capital": "primary",
    "population": 889231.0,
    "is_territory": false,
    "continent": "Africa",
    "guessable": false,
    "rank": 1.0
  },
  {
    "id": 1148708596,
    "city": "N\u2019Djamena",
    "city_ascii": "N'Djamena",
    "lat": 12.11,
    "lng": 15.05,
    "country": "Chad",
    "iso2": "TD",
    "iso3": "TCD",
    "admin_name": "Ville de N\u2019Djam\u00e9na",
    "capital": "primary",
    "population": 1092066.0,
    "is_territory": false,
    "continent": "Africa",
    "guessable": false,
    "rank": 1.0
  },
  {
    "id": 1152554349,
    "city": "Santiago",
    "city_ascii": "Santiago",
    "lat": -33.45,
    "lng": -70.6667,
    "country": "Chile",
    "iso2": "CL",
    "iso3": "CHL",
    "admin_name": "Regi\u00f3n Metropolitana",
    "capital": "primary",
    "population": 7026000.0,
    "is_territory": false,
    "continent": "South America",
    "guessable": true,
    "rank": 1.0
  },
  {
    "id": 1156228865,
    "city": "Beijing",
    "city_ascii": "Beijing",
    "lat": 39.904,
    "lng": 116.4075,
    "country": "China",
    "iso2": "CN",
    "iso3": "CHN",
    "admin_name": "Beijing",
    "capital": "primary",
    "population": 19437000.0,
    "is_territory": false,
    "continent": "Asia",
    "guessable": true,
    "rank": 3.0
  },
  {
    "id": 1170483426,
    "city": "Bogot\u00e1",
    "city_ascii": "Bogota",
    "lat": 4.6126,
    "lng": -74.0705,
    "country": "Colombia",
    "iso2": "CO",
    "iso3": "COL",
    "admin_name": "Bogot\u00e1",
    "capital": "primary",
    "population": 7743955.0,
    "is_territory": false,
    "continent": "South America",
    "guessable": true,
    "rank": 1.0
  },
  {
    "id": 1174793581,
    "city": "Moroni",
    "city_ascii": "Moroni",
    "lat": -11.7036,
    "lng": 43.2536,
    "country": "Comoros",
    "iso2": "KM",
    "iso3": "COM",
    "admin_name": "Grande Comore",
    "capital": "primary",
    "population": 111329.0,
    "is_territory": false,
    "continent": "Africa",
    "guessable": false,
    "rank": 1.0
  },
  {
    "id": 1188749877,
    "city": "San Jos\u00e9",
    "city_ascii": "San Jose",
    "lat": 9.9333,
    "lng": -84.0833,
    "country": "Costa Rica",
    "iso2": "CR",
    "iso3": "CRI",
    "admin_name": "San Jos\u00e9",
    "capital": "primary",
    "population": 288054.0,
    "is_territory": false,
    "continent": "North America",
    "guessable": true,
    "rank": 1.0
  },
  {
    "id": 1191233290,
    "city": "Zagreb",
    "city_ascii": "Zagreb",
    "lat": 45.8131,
    "lng": 15.9772,
    "country": "Croatia",
    "iso2": "HR",
    "iso3": "HRV",
    "admin_name": "Zagreb, Grad",
    "capital": "primary",
    "population": 790017.0,
    "is_territory": false,
    "continent": "Europe",
    "guessable": true,
    "rank": 1.0
  },
  {
    "id": 1192752771,
    "city": "Havana",
    "city_ascii": "Havana",
    "lat": 23.1367,
    "lng": -82.3589,
    "country": "Cuba",
    "iso2": "CU",
    "iso3": "CUB",
    "admin_name": "La Habana",
    "capital": "primary",
    "population": 2141652.0,
    "is_territory": false,
    "continent": "North America",
    "guessable": true,
    "rank": 1.0
  },
  {
    "id": 1196944155,
    "city": "Nicosia",
    "city_ascii": "Nicosia",
    "lat": 35.1725,
    "lng": 33.365,
    "country": "Cyprus",
    "iso2": "CY",
    "iso3": "CYP",
    "admin_name": "Lefkos\u00eda",
    "capital": "primary",
    "population": 330000.0,
    "is_territory": false,
    "continent": "Asia",
    "guessable": true,
    "rank": 1.0
  },
  {
    "id": 1203744823,
    "city": "Prague",
    "city_ascii": "Prague",
    "lat": 50.0833,
    "lng": 14.4167,
    "country": "Czechia",
    "iso2": "CZ",
    "iso3": "CZE",
    "admin_name": "Praha, Hlavn\u00ed M\u011bsto",
    "capital": "primary",
    "population": 1335084.0,
    "is_territory": false,
    "continent": "Europe",
    "guessable": true,
    "rank": 1.0
  },
  {
    "id": 1180000363,
    "city": "Kinshasa",
    "city_ascii": "Kinshasa",
    "lat": -4.3317,
    "lng": 15.3139,
    "country": "Democratic Republic of the Congo",
    "iso2": "CD",
    "iso3": "COD",
    "admin_name": "Kinshasa",
    "capital": "primary",
    "population": 15056000.0,
    "is_territory": false,
    "continent": "Africa",
    "guessable": true,
    "rank": 1.0
  },
  {
    "id": 1208763942,
    "city": "Copenhagen",
    "city_ascii": "Copenhagen",
    "lat": 55.6805,
    "lng": 12.5615,
    "country": "Denmark",
    "iso2": "DK",
    "iso3": "DNK",
    "admin_name": "Hovedstaden",
    "capital": "primary",
    "population": 1085000.0,
    "is_territory": false,
    "continent": "Europe",
    "guessable": true,
    "rank": 1.0
  },
  {
    "id": 1262028958,
    "city": "Djibouti",
    "city_ascii": "Djibouti",
    "lat": 11.595,
    "lng": 43.1481,
    "country": "Djibouti",
    "iso2": "DJ",
    "iso3": "DJI",
    "admin_name": "Djibouti",
    "capital": "primary",
    "population": 562000.0,
    "is_territory": false,
    "continent": "Africa",
    "guessable": true,
    "rank": 1.0
  },
  {
    "id": 1212060440,
    "city": "Roseau",
    "city_ascii": "Roseau",
    "lat": 15.3,
    "lng": -61.3833,
    "country": "Dominica",
    "iso2": "DM",
    "iso3": "DMA",
    "admin_name": "Saint George",
    "capital": "primary",
    "population": 16582.0,
    "is_territory": false,
    "continent": "North America",
    "guessable": false,
    "rank": 1.0
  },
  {
    "id": 1214636202,
    "city": "Santo Domingo",
    "city_ascii": "Santo Domingo",
    "lat": 18.4764,
    "lng": -69.8933,
    "country": "Dominican Republic",
    "iso2": "DO",
    "iso3": "DOM",
    "admin_name": "Ozama",
    "capital": "primary",
    "population": 2581827.0,
    "is_territory": false,
    "continent": "North America",
    "guessable": false,
    "rank": 1.0
  },
  {
    "id": 1626308942,
    "city": "Dili",
    "city_ascii": "Dili",
    "lat": -8.5536,
    "lng": 125.5783,
    "country": "East Timor",
    "iso2": "TL",
    "iso3": "TLS",
    "admin_name": "D\u00edli",
    "capital": "primary",
    "population": 222323.0,
    "is_territory": false,
    "continent": "Asia",
    "guessable": false,
    "rank": 1.0
  },
  {
    "id": 1218441993,
    "city": "Quito",
    "city_ascii": "Quito",
    "lat": -0.22,
    "lng": -78.5125,
    "country": "Ecuador",
    "iso2": "EC",
    "iso3": "ECU",
    "admin_name": "Pichincha",
    "capital": "primary",
    "population": 2011388.0,
    "is_territory": false,
    "continent": "South America",
    "guessable": true,
    "rank": 2.0
  },
  {
    "id": 1818253931,
    "city": "Cairo",
    "city_ascii": "Cairo",
    "lat": 30.0444,
    "lng": 31.2358,
    "country": "Egypt",
    "iso2": "EG",
    "iso3": "EGY",
    "admin_name": "Al Q\u0101hirah",
    "capital": "primary",
    "population": 19787000.0,
    "is_territory": false,
    "continent": "Africa",
    "guessable": true,
    "rank": 1.0
  },
  {
    "id": 1222647454,
    "city": "San Salvador",
    "city_ascii": "San Salvador",
    "lat": 13.6989,
    "lng": -89.1914,
    "country": "El Salvador",
    "iso2": "SV",
    "iso3": "SLV",
    "admin_name": "San Salvador",
    "capital": "primary",
    "population": 567698.0,
    "is_territory": false,
    "continent": "North America",
    "guessable": true,
    "rank": 1.0
  },
  {
    "id": 1226861333,
    "city": "Malabo",
    "city_ascii": "Malabo",
    "lat": 3.7521,
    "lng": 8.7737,
    "country": "Equatorial Guinea",
    "iso2": "GQ",
    "iso3": "GNQ",
    "admin_name": "Bioko Norte",
    "capital": "primary",
    "population": 187302.0,
    "is_territory": false,
    "continent": "Africa",
    "guessable": false,
    "rank": 2.0
  },
  {
    "id": 1232791236,
    "city": "Asmara",
    "city_ascii": "Asmara",
    "lat": 15.3333,
    "lng": 38.9167,
    "country": "Eritrea",
    "iso2": "ER",
    "iso3": "ERI",
    "admin_name": "Ma\u2019\u0101kel",
    "capital": "primary",
    "population": 963000.0,
    "is_territory": false,
    "continent": "Africa",
    "guessable": false,
    "rank": 1.0
  },
  {
    "id": 1233260021,
    "city": "Tallinn",
    "city_ascii": "Tallinn",
    "lat": 59.4372,
    "lng": 24.745,
    "country": "Estonia",
    "iso2": "EE",
    "iso3": "EST",
    "admin_name": "Harjumaa",
    "capital": "primary",
    "population": 438341.0,
    "is_territory": false,
    "continent": "Europe",
    "guessable": true,
    "rank": 1.0
  },
  {
    "id": 1748811945,
    "city": "Mbabane",
    "city_ascii": "Mbabane",
    "lat": -26.3208,
    "lng": 31.1617,
    "country": "Eswatini",
    "iso2": "SZ",
    "iso3": "SWZ",
    "admin_name": "Hhohho",
    "capital": "primary",
    "population": 94874.0,
    "is_territory": false,
    "continent": "Africa",
    "guessable": false,
    "rank": 2.0
  },
  {
    "id": 1231824991,
    "city": "Addis Ababa",
    "city_ascii": "Addis Ababa",
    "lat": 9.0272,
    "lng": 38.7369,
    "country": "Ethiopia",
    "iso2": "ET",
    "iso3": "ETH",
    "admin_name": "\u0100d\u012bs \u0100beba",
    "capital": "primary",
    "population": 3041002.0,
    "is_territory": false,
    "continent": "Africa",
    "guessable": true,
    "rank": 1.0
  },
  {
    "id": 1583008885,
    "city": "Palikir",
    "city_ascii": "Palikir",
    "lat": 6.9178,
    "lng": 158.185,
    "country": "Federated States of Micronesia",
    "iso2": "FM",
    "iso3": "FSM",
    "admin_name": "Pohnpei",
    "capital": "primary",
    "population": 6227.0,
    "is_territory": false,
    "continent": "Oceania",
    "guessable": false,
    "rank": 1.0
  },
  {
    "id": 1242615095,
    "city": "Suva",
    "city_ascii": "Suva",
    "lat": -18.1333,
    "lng": 178.4333,
    "country": "Fiji",
    "iso2": "FJ",
    "iso3": "FJI",
    "admin_name": "Rewa",
    "capital": "primary",
    "population": 88271.0,
    "is_territory": false,
    "continent": "Oceania",
    "guessable": false,
    "rank": 1.0
  },
  {
    "id": 1246177997,
    "city": "Helsinki",
    "city_ascii": "Helsinki",
    "lat": 60.1756,
    "lng": 24.9342,
    "country": "Finland",
    "iso2": "FI",
    "iso3": "FIN",
    "admin_name": "Uusimaa",
    "capital": "primary",
    "population": 642045.0,
    "is_territory": false,
    "continent": "Europe",
    "guessable": true,
    "rank": 1.0
  },
  {
    "id": 1250015082,
    "city": "Paris",
    "city_ascii": "Paris",
    "lat": 48.8566,
    "lng": 2.3522,
    "country": "France",
    "iso2": "FR",
    "iso3": "FRA",
    "admin_name": "\u00cele-de-France",
    "capital": "primary",
    "population": 11027000.0,
    "is_territory": false,
    "continent": "Europe",
    "guessable": true,
    "rank": 1.0
  },
  {
    "id": 1266952885,
    "city": "Libreville",
    "city_ascii": "Libreville",
    "lat": 0.3901,
    "lng": 9.4544,
    "country": "Gabon",
    "iso2": "GA",
    "iso3": "GAB",
    "admin_name": "Estuaire",
    "capital": "primary",
    "population": 797003.0,
    "is_territory": false,
    "continent": "Africa",
    "guessable": false,
    "rank": 1.0
  },
  {
    "id": 1270723713,
    "city": "Banjul",
    "city_ascii": "Banjul",
    "lat": 13.4531,
    "lng": -16.5775,
    "country": "Gambia",
    "iso2": "GM",
    "iso3": "GMB",
    "admin_name": "Banjul",
    "capital": "primary",
    "population": 31356.0,
    "is_territory": false,
    "continent": "Africa",
    "guessable": false,
    "rank": 3.0
  },
  {
    "id": 1268203191,
    "city": "Tbilisi",
    "city_ascii": "Tbilisi",
    "lat": 41.7225,
    "lng": 44.7925,
    "country": "Georgia",
    "iso2": "GE",
    "iso3": "GEO",
    "admin_name": "Tbilisi",
    "capital": "primary",
    "population": 1118035.0,
    "is_territory": false,
    "continent": "Asia",
    "guessable": true,
    "rank": 1.0
  },
  {
    "id": 1276451290,
    "city": "Berlin",
    "city_ascii": "Berlin",
    "lat": 52.5167,
    "lng": 13.3833,
    "country": "Germany",
    "iso2": "DE",
    "iso3": "DEU",
    "admin_name": "Berlin",
    "capital": "primary",
    "population": 3664088.0,
    "is_territory": false,
    "continent": "Europe",
    "guessable": true,
    "rank": 1.0
  },
  {
    "id": 1288299415,
    "city": "Accra",
    "city_ascii": "Accra",
    "lat": 5.6037,
    "lng": -0.187,
    "country": "Ghana",
    "iso2": "GH",
    "iso3": "GHA",
    "admin_name": "Greater Accra",
    "capital": "primary",
    "population": 2291352.0,
    "is_territory": false,
    "continent": "Africa",
    "guessable": false,
    "rank": 1.0
  },
  {
    "id": 1300715560,
    "city": "Athens",
    "city_ascii": "Athens",
    "lat": 37.9842,
    "lng": 23.7281,
    "country": "Greece",
    "iso2": "GR",
    "iso3": "GRC",
    "admin_name": "Attik\u00ed",
    "capital": "primary",
    "population": 664046.0,
    "is_territory": false,
    "continent": "Europe",
    "guessable": true,
    "rank": 1.0
  },
  {
    "id": 1308891766,
    "city": "Saint George\u2019s",
    "city_ascii": "Saint George's",
    "lat": 12.0444,
    "lng": -61.7417,
    "country": "Grenada",
    "iso2": "GD",
    "iso3": "GRD",
    "admin_name": "Saint George",
    "capital": "primary",
    "population": 4315.0,
    "is_territory": false,
    "continent": "North America",
    "guessable": false,
    "rank": 1.0
  },
  {
    "id": 1320197916,
    "city": "Guatemala City",
    "city_ascii": "Guatemala City",
    "lat": 14.6099,
    "lng": -90.5252,
    "country": "Guatemala",
    "iso2": "GT",
    "iso3": "GTM",
    "admin_name": "Guatemala",
    "capital": "primary",
    "population": 2934841.0,
    "is_territory": false,
    "continent": "North America",
    "guessable": true,
    "rank": 1.0
  },
  {
    "id": 1324568159,
    "city": "Conakry",
    "city_ascii": "Conakry",
    "lat": 9.538,
    "lng": -13.6773,
    "country": "Guinea",
    "iso2": "GN",
    "iso3": "GIN",
    "admin_name": "Conakry",
    "capital": "primary",
    "population": 1667864.0,
    "is_territory": false,
    "continent": "Africa",
    "guessable": false,
    "rank": 1.0
  },
  {
    "id": 1624168850,
    "city": "Bissau",
    "city_ascii": "Bissau",
    "lat": 11.8592,
    "lng": -15.5956,
    "country": "Guinea-Bissau",
    "iso2": "GW",
    "iso3": "GNB",
    "admin_name": "Bissau",
    "capital": "primary",
    "population": 395954.0,
    "is_territory": false,
    "continent": "Africa",
    "guessable": true,
    "rank": 1.0
  },
  {
    "id": 1328160906,
    "city": "Georgetown",
    "city_ascii": "Georgetown",
    "lat": 6.7833,
    "lng": -58.1667,
    "country": "Guyana",
    "iso2": "GY",
    "iso3": "GUY",
    "admin_name": "Demerara-Mahaica",
    "capital": "primary",
    "population": 200500.0,
    "is_territory": false,
    "continent": "South America",
    "guessable": true,
    "rank": 1.0
  },
  {
    "id": 1332401940,
    "city": "Port-au-Prince",
    "city_ascii": "Port-au-Prince",
    "lat": 18.5425,
    "lng": -72.3386,
    "country": "Haiti",
    "iso2": "HT",
    "iso3": "HTI",
    "admin_name": "Ouest",
    "capital": "primary",
    "population": 987310.0,
    "is_territory": false,
    "continent": "North America",
    "guessable": true,
    "rank": 1.0
  },
  {
    "id": 1340344059,
    "city": "Tegucigalpa",
    "city_ascii": "Tegucigalpa",
    "lat": 14.0942,
    "lng": -87.2067,
    "country": "Honduras",
    "iso2": "HN",
    "iso3": "HND",
    "admin_name": "Francisco Moraz\u00e1n",
    "capital": "primary",
    "population": 1126534.0,
    "is_territory": false,
    "continent": "North America",
    "guessable": false,
    "rank": 2.0
  },
  {
    "id": 1348611435,
    "city": "Budapest",
    "city_ascii": "Budapest",
    "lat": 47.4983,
    "lng": 19.0408,
    "country": "Hungary",
    "iso2": "HU",
    "iso3": "HUN",
    "admin_name": "Budapest",
    "capital": "primary",
    "population": 1723836.0,
    "is_territory": false,
    "continent": "Europe",
    "guessable": true,
    "rank": 1.0
  },
  {
    "id": 1352327190,
    "city": "Reykjav\u00edk",
    "city_ascii": "Reykjavik",
    "lat": 64.1475,
    "lng": -21.935,
    "country": "Iceland",
    "iso2": "IS",
    "iso3": "ISL",
    "admin_name": null,
    "capital": "primary",
    "population": 128793.0,
    "is_territory": false,
    "continent": "Europe",
    "guessable": true,
    "rank": 1.0
  },
  {
    "id": 1356215164,
    "city": "New Delhi",
    "city_ascii": "New Delhi",
    "lat": 28.6139,
    "lng": 77.209,
    "country": "India",
    "iso2": "IN",
    "iso3": "IND",
    "admin_name": "Delhi",
    "capital": "primary",
    "population": 32066000,
    "is_territory": false,
    "continent": "Asia",
    "guessable": true,
    "rank": 157.0
  },
  {
    "id": 1360771077,
    "city": "Jakarta",
    "city_ascii": "Jakarta",
    "lat": -6.2146,
    "lng": 106.8451,
    "country": "Indonesia",
    "iso2": "ID",
    "iso3": "IDN",
    "admin_name": "Jakarta",
    "capital": "primary",
    "population": 35362000.0,
    "is_territory": false,
    "continent": "Asia",
    "guessable": true,
    "rank": 1.0
  },
  {
    "id": 1364305026,
    "city": "Tehran",
    "city_ascii": "Tehran",
    "lat": 35.7,
    "lng": 51.4167,
    "country": "Iran",
    "iso2": "IR",
    "iso3": "IRN",
    "admin_name": "Tehr\u0101n",
    "capital": "primary",
    "population": 13819000.0,
    "is_territory": false,
    "continent": "Asia",
    "guessable": true,
    "rank": 1.0
  },
  {
    "id": 1368596238,
    "city": "Baghdad",
    "city_ascii": "Baghdad",
    "lat": 33.35,
    "lng": 44.4167,
    "country": "Iraq",
    "iso2": "IQ",
    "iso3": "IRQ",
    "admin_name": "Baghd\u0101d",
    "capital": "primary",
    "population": 6107000.0,
    "is_territory": false,
    "continent": "Asia",
    "guessable": true,
    "rank": 1.0
  },
  {
    "id": 1372595407,
    "city": "Dublin",
    "city_ascii": "Dublin",
    "lat": 53.3497,
    "lng": -6.2603,
    "country": "Ireland",
    "iso2": "IE",
    "iso3": "IRL",
    "admin_name": "Dublin",
    "capital": "primary",
    "population": 553165.0,
    "is_territory": false,
    "continent": "Europe",
    "guessable": true,
    "rank": 1.0
  },
  {
    "id": 1376261644,
    "city": "Jerusalem",
    "city_ascii": "Jerusalem",
    "lat": 31.7833,
    "lng": 35.2167,
    "country": "Israel",
    "iso2": "IL",
    "iso3": "ISR",
    "admin_name": "Jerusalem",
    "capital": "primary",
    "population": 919438.0,
    "is_territory": false,
    "continent": "Asia",
    "guessable": true,
    "rank": 1.0
  },
  {
    "id": 1380382862,
    "city": "Rome",
    "city_ascii": "Rome",
    "lat": 41.8931,
    "lng": 12.4828,
    "country": "Italy",
    "iso2": "IT",
    "iso3": "ITA",
    "admin_name": "Lazio",
    "capital": "primary",
    "population": 2872800.0,
    "is_territory": false,
    "continent": "Europe",
    "guessable": true,
    "rank": 1.0
  },
  {
    "id": 1384683557,
    "city": "Yamoussoukro",
    "city_ascii": "Yamoussoukro",
    "lat": 6.8161,
    "lng": -5.2742,
    "country": "Ivory Coast",
    "iso2": "CI",
    "iso3": "CIV",
    "admin_name": "Yamoussoukro",
    "capital": "primary",
    "population": 355573.0,
    "is_territory": false,
    "continent": "Africa",
    "guessable": false,
    "rank": 3.0
  },
  {
    "id": 1388709177,
    "city": "Kingston",
    "city_ascii": "Kingston",
    "lat": 17.9714,
    "lng": -76.7931,
    "country": "Jamaica",
    "iso2": "JM",
    "iso3": "JAM",
    "admin_name": "Kingston",
    "capital": "primary",
    "population": 580000.0,
    "is_territory": false,
    "continent": "North America",
    "guessable": true,
    "rank": 1.0
  },
  {
    "id": 1392685764,
    "city": "Tokyo",
    "city_ascii": "Tokyo",
    "lat": 35.6839,
    "lng": 139.7744,
    "country": "Japan",
    "iso2": "JP",
    "iso3": "JPN",
    "admin_name": "T\u014dky\u014d",
    "capital": "primary",
    "population": 39105000.0,
    "is_territory": false,
    "continent": "Asia",
    "guessable": true,
    "rank": 1.0
  },
  {
    "id": 1400522593,
    "city": "Amman",
    "city_ascii": "Amman",
    "lat": 31.95,
    "lng": 35.9333,
    "country": "Jordan",
    "iso2": "JO",
    "iso3": "JOR",
    "admin_name": "Al \u2018\u0100\u015fimah",
    "capital": "primary",
    "population": 4007526.0,
    "is_territory": false,
    "continent": "Asia",
    "guessable": false,
    "rank": 1.0
  },
  {
    "id": 1398516045,
    "city": "Nur-Sultan",
    "city_ascii": "Nur-Sultan",
    "lat": 51.1333,
    "lng": 71.4333,
    "country": "Kazakhstan",
    "iso2": "KZ",
    "iso3": "KAZ",
    "admin_name": "Astana",
    "capital": "primary",
    "population": 1078362.0,
    "is_territory": false,
    "continent": "Asia",
    "guessable": false,
    "rank": 2.0
  },
  {
    "id": 1404000661,
    "city": "Nairobi",
    "city_ascii": "Nairobi",
    "lat": -1.2864,
    "lng": 36.8172,
    "country": "Kenya",
    "iso2": "KE",
    "iso3": "KEN",
    "admin_name": "Nairobi City",
    "capital": "primary",
    "population": 5545000.0,
    "is_territory": false,
    "continent": "Africa",
    "guessable": true,
    "rank": 1.0
  },
  {
    "id": 1296152641,
    "city": "Tarawa",
    "city_ascii": "Tarawa",
    "lat": 1.3382,
    "lng": 173.0176,
    "country": "Kiribati",
    "iso2": "KI",
    "iso3": "KIR",
    "admin_name": null,
    "capital": "primary",
    "population": 28802.0,
    "is_territory": false,
    "continent": "Oceania",
    "guessable": false,
    "rank": 1.0
  },
  {
    "id": 1901760068,
    "city": "Pristina",
    "city_ascii": "Pristina",
    "lat": 42.6633,
    "lng": 21.1622,
    "country": "Kosovo",
    "iso2": "XK",
    "iso3": "XKS",
    "admin_name": "Prishtin\u00eb",
    "capital": "primary",
    "population": null,
    "is_territory": false,
    "continent": "Europe",
    "guessable": null,
    "rank": null
  },
  {
    "id": 1414102075,
    "city": "Kuwait City",
    "city_ascii": "Kuwait City",
    "lat": 29.375,
    "lng": 47.98,
    "country": "Kuwait",
    "iso2": "KW",
    "iso3": "KWT",
    "admin_name": "Al \u2018\u0100\u015fimah",
    "capital": "primary",
    "population": 2989000.0,
    "is_territory": false,
    "continent": "Asia",
    "guessable": true,
    "rank": 1.0
  },
  {
    "id": 1417191971,
    "city": "Bishkek",
    "city_ascii": "Bishkek",
    "lat": 42.8667,
    "lng": 74.5667,
    "country": "Kyrgyzstan",
    "iso2": "KG",
    "iso3": "KGZ",
    "admin_name": "Bishkek",
    "capital": "primary",
    "population": 1053900.0,
    "is_territory": false,
    "continent": "Asia",
    "guessable": false,
    "rank": 1.0
  },
  {
    "id": 1418732714,
    "city": "Vientiane",
    "city_ascii": "Vientiane",
    "lat": 17.9667,
    "lng": 102.6,
    "country": "Laos",
    "iso2": "LA",
    "iso3": "LAO",
    "admin_name": "Viangchan",
    "capital": "primary",
    "population": 948487.0,
    "is_territory": false,
    "continent": "Asia",
    "guessable": false,
    "rank": 1.0
  },
  {
    "id": 1428586192,
    "city": "Riga",
    "city_ascii": "Riga",
    "lat": 56.9475,
    "lng": 24.1069,
    "country": "Latvia",
    "iso2": "LV",
    "iso3": "LVA",
    "admin_name": "R\u012bga",
    "capital": "primary",
    "population": 614618.0,
    "is_territory": false,
    "continent": "Europe",
    "guessable": true,
    "rank": 1.0
  },
  {
    "id": 1422847713,
    "city": "Beirut",
    "city_ascii": "Beirut",
    "lat": 33.8869,
    "lng": 35.5131,
    "country": "Lebanon",
    "iso2": "LB",
    "iso3": "LBN",
    "admin_name": "Beyrouth",
    "capital": "primary",
    "population": 361366.0,
    "is_territory": false,
    "continent": "Asia",
    "guessable": true,
    "rank": 2.0
  },
  {
    "id": 1426977668,
    "city": "Maseru",
    "city_ascii": "Maseru",
    "lat": -29.31,
    "lng": 27.48,
    "country": "Lesotho",
    "iso2": "LS",
    "iso3": "LSO",
    "admin_name": "Maseru",
    "capital": "primary",
    "population": 330790.0,
    "is_territory": false,
    "continent": "Africa",
    "guessable": false,
    "rank": 1.0
  },
  {
    "id": 1430477826,
    "city": "Monrovia",
    "city_ascii": "Monrovia",
    "lat": 6.3106,
    "lng": -10.8047,
    "country": "Liberia",
    "iso2": "LR",
    "iso3": "LBR",
    "admin_name": "Montserrado",
    "capital": "primary",
    "population": 1021762.0,
    "is_territory": false,
    "continent": "Africa",
    "guessable": false,
    "rank": 1.0
  },
  {
    "id": 1434201852,
    "city": "Tripoli",
    "city_ascii": "Tripoli",
    "lat": 32.8752,
    "lng": 13.1875,
    "country": "Libya",
    "iso2": "LY",
    "iso3": "LBY",
    "admin_name": "\u0162ar\u0101bulus",
    "capital": "primary",
    "population": 1126000.0,
    "is_territory": false,
    "continent": "Africa",
    "guessable": true,
    "rank": 1.0
  },
  {
    "id": 1438317747,
    "city": "Vaduz",
    "city_ascii": "Vaduz",
    "lat": 47.1397,
    "lng": 9.5219,
    "country": "Liechtenstein",
    "iso2": "LI",
    "iso3": "LIE",
    "admin_name": "Vaduz",
    "capital": "primary",
    "population": 5668.0,
    "is_territory": false,
    "continent": "Europe",
    "guessable": true,
    "rank": 2.0
  },
  {
    "id": 1440887149,
    "city": "Vilnius",
    "city_ascii": "Vilnius",
    "lat": 54.6833,
    "lng": 25.2833,
    "country": "Lithuania",
    "iso2": "LT",
    "iso3": "LTU",
    "admin_name": "Vilniaus Miestas",
    "capital": "primary",
    "population": 574147.0,
    "is_territory": false,
    "continent": "Europe",
    "guessable": true,
    "rank": 1.0
  },
  {
    "id": 1442262731,
    "city": "Luxembourg",
    "city_ascii": "Luxembourg",
    "lat": 49.6106,
    "lng": 6.1328,
    "country": "Luxembourg",
    "iso2": "LU",
    "iso3": "LUX",
    "admin_name": "Luxembourg",
    "capital": "primary",
    "population": 128512.0,
    "is_territory": false,
    "continent": "Europe",
    "guessable": true,
    "rank": 1.0
  },
  {
    "id": 1450978461,
    "city": "Antananarivo",
    "city_ascii": "Antananarivo",
    "lat": -18.9386,
    "lng": 47.5214,
    "country": "Madagascar",
    "iso2": "MG",
    "iso3": "MDG",
    "admin_name": "Antananarivo",
    "capital": "primary",
    "population": 2610000.0,
    "is_territory": false,
    "continent": "Africa",
    "guessable": true,
    "rank": 1.0
  },
  {
    "id": 1454688499,
    "city": "Lilongwe",
    "city_ascii": "Lilongwe",
    "lat": -13.9833,
    "lng": 33.7833,
    "country": "Malawi",
    "iso2": "MW",
    "iso3": "MWI",
    "admin_name": "Lilongwe",
    "capital": "primary",
    "population": 781538.0,
    "is_territory": false,
    "continent": "Africa",
    "guessable": false,
    "rank": 2.0
  },
  {
    "id": 1458988644,
    "city": "Kuala Lumpur",
    "city_ascii": "Kuala Lumpur",
    "lat": 3.1478,
    "lng": 101.6953,
    "country": "Malaysia",
    "iso2": "MY",
    "iso3": "MYS",
    "admin_name": "Kuala Lumpur",
    "capital": "primary",
    "population": 8639000.0,
    "is_territory": false,
    "continent": "Asia",
    "guessable": true,
    "rank": 1.0
  },
  {
    "id": 1462441685,
    "city": "Male",
    "city_ascii": "Male",
    "lat": 4.175,
    "lng": 73.5083,
    "country": "Maldives",
    "iso2": "MV",
    "iso3": "MDV",
    "admin_name": "Maale",
    "capital": "primary",
    "population": 133019.0,
    "is_territory": false,
    "continent": "Seven seas (open ocean)",
    "guessable": false,
    "rank": 1.0
  },
  {
    "id": 1466965925,
    "city": "Bamako",
    "city_ascii": "Bamako",
    "lat": 12.6458,
    "lng": -7.9922,
    "country": "Mali",
    "iso2": "ML",
    "iso3": "MLI",
    "admin_name": "Bamako",
    "capital": "primary",
    "population": 2009109.0,
    "is_territory": false,
    "continent": "Africa",
    "guessable": false,
    "rank": 1.0
  },
  {
    "id": 1470574399,
    "city": "Valletta",
    "city_ascii": "Valletta",
    "lat": 35.8978,
    "lng": 14.5125,
    "country": "Malta",
    "iso2": "MT",
    "iso3": "MLT",
    "admin_name": "Valletta",
    "capital": "primary",
    "population": 6444.0,
    "is_territory": false,
    "continent": "Europe",
    "guessable": true,
    "rank": 28.0
  },
  {
    "id": 1584000000,
    "city": "Majuro",
    "city_ascii": "Majuro",
    "lat": 7.0918,
    "lng": 171.3802,
    "country": "Marshall Islands",
    "iso2": "MH",
    "iso3": "MHL",
    "admin_name": "Majuro",
    "capital": "primary",
    "population": 30000.0,
    "is_territory": false,
    "continent": "Oceania",
    "guessable": false,
    "rank": 1.0
  },
  {
    "id": 1478414984,
    "city": "Nouakchott",
    "city_ascii": "Nouakchott",
    "lat": 18.0858,
    "lng": -15.9785,
    "country": "Mauritania",
    "iso2": "MR",
    "iso3": "MRT",
    "admin_name": null,
    "capital": "primary",
    "population": 1077169.0,
    "is_territory": false,
    "continent": "Africa",
    "guessable": false,
    "rank": 1.0
  },
  {
    "id": 1480131261,
    "city": "Port Louis",
    "city_ascii": "Port Louis",
    "lat": -20.1667,
    "lng": 57.5,
    "country": "Mauritius",
    "iso2": "MU",
    "iso3": "MUS",
    "admin_name": "Port Louis",
    "capital": "primary",
    "population": 149194.0,
    "is_territory": false,
    "continent": "Seven seas (open ocean)",
    "guessable": false,
    "rank": 2.0
  },
  {
    "id": 1484247881,
    "city": "Mexico City",
    "city_ascii": "Mexico City",
    "lat": 19.4333,
    "lng": -99.1333,
    "country": "Mexico",
    "iso2": "MX",
    "iso3": "MEX",
    "admin_name": "Ciudad de M\u00e9xico",
    "capital": "primary",
    "population": 21505000.0,
    "is_territory": false,
    "continent": "North America",
    "guessable": true,
    "rank": 1.0
  },
  {
    "id": 1498011437,
    "city": "Chisinau",
    "city_ascii": "Chisinau",
    "lat": 47.0228,
    "lng": 28.8353,
    "country": "Moldova",
    "iso2": "MD",
    "iso3": "MDA",
    "admin_name": "Chi\u015fin\u0103u",
    "capital": "primary",
    "population": 639000.0,
    "is_territory": false,
    "continent": "Europe",
    "guessable": true,
    "rank": 1.0
  },
  {
    "id": 1492854256,
    "city": "Monaco",
    "city_ascii": "Monaco",
    "lat": 43.7396,
    "lng": 7.4069,
    "country": "Monaco",
    "iso2": "MC",
    "iso3": "MCO",
    "admin_name": null,
    "capital": "primary",
    "population": 36371.0,
    "is_territory": false,
    "continent": "Europe",
    "guessable": true,
    "rank": 1.0
  },
  {
    "id": 1496024767,
    "city": "Ulaanbaatar",
    "city_ascii": "Ulaanbaatar",
    "lat": 47.9214,
    "lng": 106.9055,
    "country": "Mongolia",
    "iso2": "MN",
    "iso3": "MNG",
    "admin_name": "Ulaanbaatar",
    "capital": "primary",
    "population": 1396288.0,
    "is_territory": false,
    "continent": "Asia",
    "guessable": true,
    "rank": 1.0
  },
  {
    "id": 1499454516,
    "city": "Podgorica",
    "city_ascii": "Podgorica",
    "lat": 42.4397,
    "lng": 19.2661,
    "country": "Montenegro",
    "iso2": "ME",
    "iso3": "MNE",
    "admin_name": "Podgorica",
    "capital": "primary",
    "population": 174515.0,
    "is_territory": false,
    "continent": "Europe",
    "guessable": false,
    "rank": 1.0
  },
  {
    "id": 1504023252,
    "city": "Rabat",
    "city_ascii": "Rabat",
    "lat": 34.0253,
    "lng": -6.8361,
    "country": "Morocco",
    "iso2": "MA",
    "iso3": "MAR",
    "admin_name": "Rabat-Sal\u00e9-K\u00e9nitra",
    "capital": "primary",
    "population": 572717.0,
    "is_territory": false,
    "continent": "Africa",
    "guessable": false,
    "rank": 7.0
  },
  {
    "id": 1508074843,
    "city": "Maputo",
    "city_ascii": "Maputo",
    "lat": -25.9153,
    "lng": 32.5764,
    "country": "Mozambique",
    "iso2": "MZ",
    "iso3": "MOZ",
    "admin_name": "Maputo",
    "capital": "primary",
    "population": 1191613.0,
    "is_territory": false,
    "continent": "Africa",
    "guessable": false,
    "rank": 1.0
  },
  {
    "id": 1104838105,
    "city": "Nay Pyi Taw",
    "city_ascii": "Naypyidaw",
    "lat": 19.7475,
    "lng": 96.115,
    "country": "Myanmar",
    "iso2": "MM",
    "iso3": "MMR",
    "admin_name": "Nay Pyi Taw",
    "capital": "primary",
    "population": 1160242.0,
    "is_territory": false,
    "continent": "Asia",
    "guessable": false,
    "rank": 3.0
  },
  {
    "id": 1516802003,
    "city": "Windhoek",
    "city_ascii": "Windhoek",
    "lat": -22.57,
    "lng": 17.0836,
    "country": "Namibia",
    "iso2": "NA",
    "iso3": "NAM",
    "admin_name": "Khomas",
    "capital": "primary",
    "population": 322500.0,
    "is_territory": false,
    "continent": "Africa",
    "guessable": false,
    "rank": 1.0
  },
  {
    "id": 1520790128,
    "city": "Yaren",
    "city_ascii": "Yaren",
    "lat": -0.5477,
    "lng": 166.9209,
    "country": "Nauru",
    "iso2": "NR",
    "iso3": "NRU",
    "admin_name": "Yaren",
    "capital": "primary",
    "population": null,
    "is_territory": false,
    "continent": "Oceania",
    "guessable": null,
    "rank": null
  },
  {
    "id": 1524589448,
    "city": "Kathmandu",
    "city_ascii": "Kathmandu",
    "lat": 27.7167,
    "lng": 85.3667,
    "country": "Nepal",
    "iso2": "NP",
    "iso3": "NPL",
    "admin_name": "B\u0101gmat\u012b",
    "capital": "primary",
    "population": 975453.0,
    "is_territory": false,
    "continent": "Asia",
    "guessable": true,
    "rank": 1.0
  },
  {
    "id": 1528355309,
    "city": "Amsterdam",
    "city_ascii": "Amsterdam",
    "lat": 52.3667,
    "lng": 4.8833,
    "country": "Netherlands",
    "iso2": "NL",
    "iso3": "NLD",
    "admin_name": "Noord-Holland",
    "capital": "primary",
    "population": 862965.0,
    "is_territory": false,
    "continent": "Europe",
    "guessable": true,
    "rank": 1.0
  },
  {
    "id": 1554772152,
    "city": "Wellington",
    "city_ascii": "Wellington",
    "lat": -41.2889,
    "lng": 174.7772,
    "country": "New Zealand",
    "iso2": "NZ",
    "iso3": "NZL",
    "admin_name": "Wellington",
    "capital": "primary",
    "population": 418500.0,
    "is_territory": false,
    "continent": "Oceania",
    "guessable": true,
    "rank": 2.0
  },
  {
    "id": 1558296252,
    "city": "Managua",
    "city_ascii": "Managua",
    "lat": 12.15,
    "lng": -86.2667,
    "country": "Nicaragua",
    "iso2": "NI",
    "iso3": "NIC",
    "admin_name": "Managua",
    "capital": "primary",
    "population": 1028808.0,
    "is_territory": false,
    "continent": "North America",
    "guessable": false,
    "rank": 1.0
  },
  {
    "id": 1562932886,
    "city": "Niamey",
    "city_ascii": "Niamey",
    "lat": 13.5086,
    "lng": 2.1111,
    "country": "Niger",
    "iso2": "NE",
    "iso3": "NER",
    "admin_name": "Niamey",
    "capital": "primary",
    "population": 1026848.0,
    "is_territory": false,
    "continent": "Africa",
    "guessable": false,
    "rank": 1.0
  },
  {
    "id": 1566342270,
    "city": "Abuja",
    "city_ascii": "Abuja",
    "lat": 9.0556,
    "lng": 7.4914,
    "country": "Nigeria",
    "iso2": "NG",
    "iso3": "NGA",
    "admin_name": "Federal Capital Territory",
    "capital": "primary",
    "population": 1235880.0,
    "is_territory": false,
    "continent": "Africa",
    "guessable": false,
    "rank": 6.0
  },
  {
    "id": 1408738594,
    "city": "Pyongyang",
    "city_ascii": "Pyongyang",
    "lat": 39.03,
    "lng": 125.73,
    "country": "North Korea",
    "iso2": "KP",
    "iso3": "PRK",
    "admin_name": "P\u2019y\u014fngyang",
    "capital": "primary",
    "population": 2863000.0,
    "is_territory": false,
    "continent": "Asia",
    "guessable": true,
    "rank": 1.0
  },
  {
    "id": 1807600615,
    "city": "Skopje",
    "city_ascii": "Skopje",
    "lat": 41.9833,
    "lng": 21.4333,
    "country": "North Macedonia",
    "iso2": "MK",
    "iso3": "MKD",
    "admin_name": "Skopje",
    "capital": "primary",
    "population": 640000.0,
    "is_territory": false,
    "continent": "Europe",
    "guessable": true,
    "rank": 1.0
  },
  {
    "id": 1578324706,
    "city": "Oslo",
    "city_ascii": "Oslo",
    "lat": 59.9111,
    "lng": 10.7528,
    "country": "Norway",
    "iso2": "NO",
    "iso3": "NOR",
    "admin_name": "Oslo",
    "capital": "primary",
    "population": 693494.0,
    "is_territory": false,
    "continent": "Europe",
    "guessable": true,
    "rank": 1.0
  },
  {
    "id": 1512035506,
    "city": "Muscat",
    "city_ascii": "Muscat",
    "lat": 23.6139,
    "lng": 58.5922,
    "country": "Oman",
    "iso2": "OM",
    "iso3": "OMN",
    "admin_name": "Masqa\u0163",
    "capital": "primary",
    "population": 1421409.0,
    "is_territory": false,
    "continent": "Asia",
    "guessable": false,
    "rank": 1.0
  },
  {
    "id": 1586306717,
    "city": "Islamabad",
    "city_ascii": "Islamabad",
    "lat": 33.6989,
    "lng": 73.0369,
    "country": "Pakistan",
    "iso2": "PK",
    "iso3": "PAK",
    "admin_name": "Isl\u0101m\u0101b\u0101d",
    "capital": "primary",
    "population": 1014825.0,
    "is_territory": false,
    "continent": "Asia",
    "guessable": true,
    "rank": 10.0
  },
  {
    "id": 1585525081,
    "city": "Ngerulmud",
    "city_ascii": "Ngerulmud",
    "lat": 7.5006,
    "lng": 134.6242,
    "country": "Palau",
    "iso2": "PW",
    "iso3": "PLW",
    "admin_name": "Melekeok",
    "capital": "primary",
    "population": 271.0,
    "is_territory": false,
    "continent": "Oceania",
    "guessable": false,
    "rank": 3.0
  },
  {
    "id": 1591672475,
    "city": "Panama City",
    "city_ascii": "Panama City",
    "lat": 9.0,
    "lng": -79.5,
    "country": "Panama",
    "iso2": "PA",
    "iso3": "PAN",
    "admin_name": "Panam\u00e1",
    "capital": "primary",
    "population": 880691.0,
    "is_territory": false,
    "continent": "North America",
    "guessable": true,
    "rank": 1.0
  },
  {
    "id": 1598685395,
    "city": "Port Moresby",
    "city_ascii": "Port Moresby",
    "lat": -9.4789,
    "lng": 147.1494,
    "country": "Papua New Guinea",
    "iso2": "PG",
    "iso3": "PNG",
    "admin_name": "National Capital",
    "capital": "primary",
    "population": 317374.0,
    "is_territory": false,
    "continent": "Oceania",
    "guessable": false,
    "rank": 1.0
  },
  {
    "id": 1600057911,
    "city": "Asunci\u00f3n",
    "city_ascii": "Asuncion",
    "lat": -25.3,
    "lng": -57.6333,
    "country": "Paraguay",
    "iso2": "PY",
    "iso3": "PRY",
    "admin_name": "Asunci\u00f3n",
    "capital": "primary",
    "population": 524190.0,
    "is_territory": false,
    "continent": "South America",
    "guessable": true,
    "rank": 1.0
  },
  {
    "id": 1604728603,
    "city": "Lima",
    "city_ascii": "Lima",
    "lat": -12.06,
    "lng": -77.0375,
    "country": "Peru",
    "iso2": "PE",
    "iso3": "PER",
    "admin_name": "Lima",
    "capital": "primary",
    "population": 8992000.0,
    "is_territory": false,
    "continent": "South America",
    "guessable": true,
    "rank": 1.0
  },
  {
    "id": 1608618140,
    "city": "Manila",
    "city_ascii": "Manila",
    "lat": 14.6,
    "lng": 120.9833,
    "country": "Philippines",
    "iso2": "PH",
    "iso3": "PHL",
    "admin_name": "Manila",
    "capital": "primary",
    "population": 23971000.0,
    "is_territory": false,
    "continent": "Asia",
    "guessable": true,
    "rank": 1.0
  },
  {
    "id": 1616024847,
    "city": "Warsaw",
    "city_ascii": "Warsaw",
    "lat": 52.23,
    "lng": 21.0111,
    "country": "Poland",
    "iso2": "PL",
    "iso3": "POL",
    "admin_name": "Mazowieckie",
    "capital": "primary",
    "population": 1790658.0,
    "is_territory": false,
    "continent": "Europe",
    "guessable": true,
    "rank": 1.0
  },
  {
    "id": 1620619017,
    "city": "Lisbon",
    "city_ascii": "Lisbon",
    "lat": 38.708,
    "lng": -9.139,
    "country": "Portugal",
    "iso2": "PT",
    "iso3": "PRT",
    "admin_name": "Lisboa",
    "capital": "primary",
    "population": 506654.0,
    "is_territory": false,
    "continent": "Europe",
    "guessable": true,
    "rank": 1.0
  },
  {
    "id": 1634459660,
    "city": "Doha",
    "city_ascii": "Doha",
    "lat": 25.3,
    "lng": 51.5333,
    "country": "Qatar",
    "iso2": "QA",
    "iso3": "QAT",
    "admin_name": "Ad Daw\u1e29ah",
    "capital": "primary",
    "population": 1186023.0,
    "is_territory": false,
    "continent": "Asia",
    "guessable": false,
    "rank": 1.0
  },
  {
    "id": 1688374696,
    "city": "Belgrade",
    "city_ascii": "Belgrade",
    "lat": 44.8167,
    "lng": 20.4667,
    "country": "Republic of Serbia",
    "iso2": "RS",
    "iso3": "SRB",
    "admin_name": "Beograd",
    "capital": "primary",
    "population": 1378682.0,
    "is_territory": false,
    "continent": "Europe",
    "guessable": true,
    "rank": 1.0
  },
  {
    "id": 1178340306,
    "city": "Brazzaville",
    "city_ascii": "Brazzaville",
    "lat": -4.2667,
    "lng": 15.2833,
    "country": "Republic of the Congo",
    "iso2": "CG",
    "iso3": "COG",
    "admin_name": "Brazzaville",
    "capital": "primary",
    "population": 1827000.0,
    "is_territory": false,
    "continent": "Africa",
    "guessable": true,
    "rank": 1.0
  },
  {
    "id": 1642414442,
    "city": "Bucharest",
    "city_ascii": "Bucharest",
    "lat": 44.4,
    "lng": 26.0833,
    "country": "Romania",
    "iso2": "RO",
    "iso3": "ROU",
    "admin_name": "Bucure\u015fti",
    "capital": "primary",
    "population": 1883425.0,
    "is_territory": false,
    "continent": "Europe",
    "guessable": true,
    "rank": 1.0
  },
  {
    "id": 1643318494,
    "city": "Moscow",
    "city_ascii": "Moscow",
    "lat": 55.7558,
    "lng": 37.6178,
    "country": "Russia",
    "iso2": "RU",
    "iso3": "RUS",
    "admin_name": "Moskva",
    "capital": "primary",
    "population": 17693000.0,
    "is_territory": false,
    "continent": "Europe",
    "guessable": true,
    "rank": 1.0
  },
  {
    "id": 1646923541,
    "city": "Kigali",
    "city_ascii": "Kigali",
    "lat": -1.9536,
    "lng": 30.0606,
    "country": "Rwanda",
    "iso2": "RW",
    "iso3": "RWA",
    "admin_name": "Kigali",
    "capital": "primary",
    "population": 1156663.0,
    "is_territory": false,
    "continent": "Africa",
    "guessable": true,
    "rank": 1.0
  },
  {
    "id": 1659198919,
    "city": "Basseterre",
    "city_ascii": "Basseterre",
    "lat": 17.2983,
    "lng": -62.7342,
    "country": "Saint Kitts and Nevis",
    "iso2": "KN",
    "iso3": "KNA",
    "admin_name": "Saint George Basseterre",
    "capital": "primary",
    "population": 13220.0,
    "is_territory": false,
    "continent": "North America",
    "guessable": false,
    "rank": 1.0
  },
  {
    "id": 1662922505,
    "city": "Castries",
    "city_ascii": "Castries",
    "lat": 14.0167,
    "lng": -60.9833,
    "country": "Saint Lucia",
    "iso2": "LC",
    "iso3": "LCA",
    "admin_name": "Castries",
    "capital": "primary",
    "population": 70000.0,
    "is_territory": false,
    "continent": "North America",
    "guessable": false,
    "rank": 1.0
  },
  {
    "id": 1670376659,
    "city": "Kingstown",
    "city_ascii": "Kingstown",
    "lat": 13.1667,
    "lng": -61.2333,
    "country": "Saint Vincent and the Grenadines",
    "iso2": "VC",
    "iso3": "VCT",
    "admin_name": "Saint George",
    "capital": "primary",
    "population": 25000.0,
    "is_territory": false,
    "continent": "North America",
    "guessable": false,
    "rank": 1.0
  },
  {
    "id": 1882489296,
    "city": "Apia",
    "city_ascii": "Apia",
    "lat": -13.8333,
    "lng": -171.8333,
    "country": "Samoa",
    "iso2": "WS",
    "iso3": "WSM",
    "admin_name": "Tuamasaga",
    "capital": "primary",
    "population": 37708.0,
    "is_territory": false,
    "continent": "Oceania",
    "guessable": false,
    "rank": 1.0
  },
  {
    "id": 1674741947,
    "city": "San Marino",
    "city_ascii": "San Marino",
    "lat": 43.932,
    "lng": 12.4484,
    "country": "San Marino",
    "iso2": "SM",
    "iso3": "SMR",
    "admin_name": "San Marino Citt\u00e0",
    "capital": "primary",
    "population": 4040.0,
    "is_territory": false,
    "continent": "Europe",
    "guessable": true,
    "rank": 1.0
  },
  {
    "id": 1682999334,
    "city": "Riyadh",
    "city_ascii": "Riyadh",
    "lat": 24.65,
    "lng": 46.71,
    "country": "Saudi Arabia",
    "iso2": "SA",
    "iso3": "SAU",
    "admin_name": "Ar Riy\u0101\u1e11",
    "capital": "primary",
    "population": 6889000.0,
    "is_territory": false,
    "continent": "Asia",
    "guessable": true,
    "rank": 1.0
  },
  {
    "id": 1686604760,
    "city": "Dakar",
    "city_ascii": "Dakar",
    "lat": 14.7319,
    "lng": -17.4572,
    "country": "Senegal",
    "iso2": "SN",
    "iso3": "SEN",
    "admin_name": "Dakar",
    "capital": "primary",
    "population": 1146053.0,
    "is_territory": false,
    "continent": "Africa",
    "guessable": false,
    "rank": 2.0
  },
  {
    "id": 1690193579,
    "city": "Victoria",
    "city_ascii": "Victoria",
    "lat": -4.6236,
    "lng": 55.4544,
    "country": "Seychelles",
    "iso2": "SC",
    "iso3": "SYC",
    "admin_name": "English River",
    "capital": "primary",
    "population": 26450.0,
    "is_territory": false,
    "continent": "Seven seas (open ocean)",
    "guessable": false,
    "rank": 1.0
  },
  {
    "id": 1694085071,
    "city": "Freetown",
    "city_ascii": "Freetown",
    "lat": 8.4833,
    "lng": -13.2331,
    "country": "Sierra Leone",
    "iso2": "SL",
    "iso3": "SLE",
    "admin_name": "Western Area",
    "capital": "primary",
    "population": 951000.0,
    "is_territory": false,
    "continent": "Africa",
    "guessable": false,
    "rank": 1.0
  },
  {
    "id": 1702341327,
    "city": "Singapore",
    "city_ascii": "Singapore",
    "lat": 1.3,
    "lng": 103.8,
    "country": "Singapore",
    "iso2": "SG",
    "iso3": "SGP",
    "admin_name": "Central Singapore",
    "capital": "primary",
    "population": 5271000.0,
    "is_territory": false,
    "continent": "Asia",
    "guessable": true,
    "rank": 1.0
  },
  {
    "id": 1703195001,
    "city": "Bratislava",
    "city_ascii": "Bratislava",
    "lat": 48.1447,
    "lng": 17.1128,
    "country": "Slovakia",
    "iso2": "SK",
    "iso3": "SVK",
    "admin_name": "Bratislavsk\u00fd",
    "capital": "primary",
    "population": 475503.0,
    "is_territory": false,
    "continent": "Europe",
    "guessable": true,
    "rank": 1.0
  },
  {
    "id": 1705917455,
    "city": "Ljubljana",
    "city_ascii": "Ljubljana",
    "lat": 46.05,
    "lng": 14.5167,
    "country": "Slovenia",
    "iso2": "SI",
    "iso3": "SVN",
    "admin_name": "Ljubljana",
    "capital": "primary",
    "population": 286745.0,
    "is_territory": false,
    "continent": "Europe",
    "guessable": true,
    "rank": 1.0
  },
  {
    "id": 1090737486,
    "city": "Honiara",
    "city_ascii": "Honiara",
    "lat": -9.4333,
    "lng": 159.95,
    "country": "Solomon Islands",
    "iso2": "SB",
    "iso3": "SLB",
    "admin_name": "Honiara",
    "capital": "primary",
    "population": 84520.0,
    "is_territory": false,
    "continent": "Oceania",
    "guessable": false,
    "rank": 1.0
  },
  {
    "id": 1706893395,
    "city": "Mogadishu",
    "city_ascii": "Mogadishu",
    "lat": 2.0408,
    "lng": 45.3425,
    "country": "Somalia",
    "iso2": "SO",
    "iso3": "SOM",
    "admin_name": "Banaadir",
    "capital": "primary",
    "population": 2120000.0,
    "is_territory": false,
    "continent": "Africa",
    "guessable": true,
    "rank": 1.0
  },
  {
    "id": 1710176249,
    "city": "Pretoria",
    "city_ascii": "Pretoria",
    "lat": -25.7464,
    "lng": 28.1881,
    "country": "South Africa",
    "iso2": "ZA",
    "iso3": "ZAF",
    "admin_name": "Gauteng",
    "capital": "primary",
    "population": 741651.0,
    "is_territory": false,
    "continent": "Africa",
    "guessable": true,
    "rank": 5.0
  },
  {
    "id": 1158881289,
    "city": "Taipei",
    "city_ascii": "Taipei",
    "lat": 25.0478,
    "lng": 121.5319,
    "country": "Taiwan",
    "iso2": "TW",
    "iso3": "TWN",
    "admin_name": "Taipei",
    "capital": "primary",
    "population": 2684567.0,
    "is_territory": false,
    "continent": "Asia",
    "guessable": true,
    "rank": 3.0
  },
  {
    "id": 1410836482,
    "city": "Seoul",
    "city_ascii": "Seoul",
    "lat": 37.56,
    "lng": 126.99,
    "country": "South Korea",
    "iso2": "KR",
    "iso3": "KOR",
    "admin_name": "Seoul",
    "capital": "primary",
    "population": 22394000.0,
    "is_territory": false,
    "continent": "Asia",
    "guessable": true,
    "rank": 1.0
  },
  {
    "id": 1728444337,
    "city": "Juba",
    "city_ascii": "Juba",
    "lat": 4.85,
    "lng": 31.6,
    "country": "South Sudan",
    "iso2": "SS",
    "iso3": "SSD",
    "admin_name": "Central Equatoria",
    "capital": "primary",
    "population": 372410.0,
    "is_territory": false,
    "continent": "Africa",
    "guessable": false,
    "rank": 1.0
  },
  {
    "id": 1724616994,
    "city": "Madrid",
    "city_ascii": "Madrid",
    "lat": 40.4167,
    "lng": -3.7167,
    "country": "Spain",
    "iso2": "ES",
    "iso3": "ESP",
    "admin_name": "Madrid",
    "capital": "primary",
    "population": 6006000.0,
    "is_territory": false,
    "continent": "Europe",
    "guessable": true,
    "rank": 1.0
  },
  {
    "id": 1144251314,
    "city": "Colombo",
    "city_ascii": "Colombo",
    "lat": 6.9167,
    "lng": 79.8333,
    "country": "Sri Lanka",
    "iso2": "LK",
    "iso3": "LKA",
    "admin_name": "Western",
    "capital": "primary",
    "population": 752993.0,
    "is_territory": false,
    "continent": "Asia",
    "guessable": false,
    "rank": 1.0
  },
  {
    "id": 1729268475,
    "city": "Khartoum",
    "city_ascii": "Khartoum",
    "lat": 15.6031,
    "lng": 32.5265,
    "country": "Sudan",
    "iso2": "SD",
    "iso3": "SDN",
    "admin_name": "Khartoum",
    "capital": "primary",
    "population": 6017000.0,
    "is_territory": false,
    "continent": "Africa",
    "guessable": true,
    "rank": 1.0
  },
  {
    "id": 1740518660,
    "city": "Paramaribo",
    "city_ascii": "Paramaribo",
    "lat": 5.8667,
    "lng": -55.1667,
    "country": "Suriname",
    "iso2": "SR",
    "iso3": "SUR",
    "admin_name": "Paramaribo",
    "capital": "primary",
    "population": 223757.0,
    "is_territory": false,
    "continent": "South America",
    "guessable": false,
    "rank": 1.0
  },
  {
    "id": 1752425602,
    "city": "Stockholm",
    "city_ascii": "Stockholm",
    "lat": 59.3294,
    "lng": 18.0686,
    "country": "Sweden",
    "iso2": "SE",
    "iso3": "SWE",
    "admin_name": "Stockholm",
    "capital": "primary",
    "population": 975819.0,
    "is_territory": false,
    "continent": "Europe",
    "guessable": true,
    "rank": 1.0
  },
  {
    "id": 1756374318,
    "city": "Bern",
    "city_ascii": "Bern",
    "lat": 46.948,
    "lng": 7.4474,
    "country": "Switzerland",
    "iso2": "CH",
    "iso3": "CHE",
    "admin_name": "Bern",
    "capital": "primary",
    "population": 133798.0,
    "is_territory": false,
    "continent": "Europe",
    "guessable": true,
    "rank": 5.0
  },
  {
    "id": 1760685964,
    "city": "Damascus",
    "city_ascii": "Damascus",
    "lat": 33.5131,
    "lng": 36.2919,
    "country": "Syria",
    "iso2": "SY",
    "iso3": "SYR",
    "admin_name": "Dimashq",
    "capital": "primary",
    "population": 1754000.0,
    "is_territory": false,
    "continent": "Asia",
    "guessable": true,
    "rank": 2.0
  },
  {
    "id": 1678301324,
    "city": "S\u00e3o Tom\u00e9",
    "city_ascii": "Sao Tome",
    "lat": 0.3333,
    "lng": 6.7333,
    "country": "S\u00e3o Tom\u00e9 and Principe",
    "iso2": "ST",
    "iso3": "STP",
    "admin_name": "S\u00e3o Tom\u00e9",
    "capital": "primary",
    "population": 56166.0,
    "is_territory": false,
    "continent": "Africa",
    "guessable": true,
    "rank": 1.0
  },
  {
    "id": 1762930616,
    "city": "Dushanbe",
    "city_ascii": "Dushanbe",
    "lat": 38.5731,
    "lng": 68.7864,
    "country": "Tajikistan",
    "iso2": "TJ",
    "iso3": "TJK",
    "admin_name": "Dushanbe",
    "capital": "primary",
    "population": 778500.0,
    "is_territory": false,
    "continent": "Asia",
    "guessable": false,
    "rank": 1.0
  },
  {
    "id": 1764068610,
    "city": "Bangkok",
    "city_ascii": "Bangkok",
    "lat": 13.75,
    "lng": 100.5167,
    "country": "Thailand",
    "iso2": "TH",
    "iso3": "THA",
    "admin_name": "Krung Thep Maha Nakhon",
    "capital": "primary",
    "population": 17573000.0,
    "is_territory": false,
    "continent": "Asia",
    "guessable": true,
    "rank": 1.0
  },
  {
    "id": 1044318561,
    "city": "Nassau",
    "city_ascii": "Nassau",
    "lat": 25.0667,
    "lng": -77.3333,
    "country": "The Bahamas",
    "iso2": "BS",
    "iso3": "BHS",
    "admin_name": null,
    "capital": "primary",
    "population": 274400.0,
    "is_territory": false,
    "continent": "North America",
    "guessable": true,
    "rank": 1.0
  },
  {
    "id": 1768409132,
    "city": "Lom\u00e9",
    "city_ascii": "Lome",
    "lat": 6.1319,
    "lng": 1.2228,
    "country": "Togo",
    "iso2": "TG",
    "iso3": "TGO",
    "admin_name": "Maritime",
    "capital": "primary",
    "population": 837437.0,
    "is_territory": false,
    "continent": "Africa",
    "guessable": false,
    "rank": 1.0
  },
  {
    "id": 1776737461,
    "city": "Nuku\u2018alofa",
    "city_ascii": "Nuku`alofa",
    "lat": -21.1347,
    "lng": -175.2083,
    "country": "Tonga",
    "iso2": "TO",
    "iso3": "TON",
    "admin_name": "Tongatapu",
    "capital": "primary",
    "population": 23221.0,
    "is_territory": false,
    "continent": "Oceania",
    "guessable": false,
    "rank": 1.0
  },
  {
    "id": 1780670676,
    "city": "Port of Spain",
    "city_ascii": "Port of Spain",
    "lat": 10.6667,
    "lng": -61.5167,
    "country": "Trinidad and Tobago",
    "iso2": "TT",
    "iso3": "TTO",
    "admin_name": "Port of Spain",
    "capital": "primary",
    "population": 37074.0,
    "is_territory": false,
    "continent": "North America",
    "guessable": true,
    "rank": 4.0
  },
  {
    "id": 1788742103,
    "city": "Tunis",
    "city_ascii": "Tunis",
    "lat": 36.8008,
    "lng": 10.18,
    "country": "Tunisia",
    "iso2": "TN",
    "iso3": "TUN",
    "admin_name": "Tunis",
    "capital": "primary",
    "population": 1056247.0,
    "is_territory": false,
    "continent": "Africa",
    "guessable": true,
    "rank": 1.0
  },
  {
    "id": 1792572891,
    "city": "Ankara",
    "city_ascii": "Ankara",
    "lat": 39.93,
    "lng": 32.85,
    "country": "Turkey",
    "iso2": "TR",
    "iso3": "TUR",
    "admin_name": "Ankara",
    "capital": "primary",
    "population": 77168.0,
    "is_territory": false,
    "continent": "Asia",
    "guessable": true,
    "rank": 60.0
  },
  {
    "id": 1795049992,
    "city": "Ashgabat",
    "city_ascii": "Ashgabat",
    "lat": 37.95,
    "lng": 58.3833,
    "country": "Turkmenistan",
    "iso2": "TM",
    "iso3": "TKM",
    "admin_name": "Ahal",
    "capital": "primary",
    "population": 19426.0,
    "is_territory": false,
    "continent": "Asia",
    "guessable": false,
    "rank": 15.0
  },
  {
    "id": 1798251391,
    "city": "Funafuti",
    "city_ascii": "Funafuti",
    "lat": -8.5243,
    "lng": 179.1942,
    "country": "Tuvalu",
    "iso2": "TV",
    "iso3": "TUV",
    "admin_name": "Funafuti",
    "capital": "primary",
    "population": 6025.0,
    "is_territory": false,
    "continent": "Oceania",
    "guessable": false,
    "rank": 1.0
  },
  {
    "id": 1800406299,
    "city": "Kampala",
    "city_ascii": "Kampala",
    "lat": 0.3136,
    "lng": 32.5811,
    "country": "Uganda",
    "iso2": "UG",
    "iso3": "UGA",
    "admin_name": "Kampala",
    "capital": "primary",
    "population": 1659600.0,
    "is_territory": false,
    "continent": "Africa",
    "guessable": true,
    "rank": 1.0
  },
  {
    "id": 1804382913,
    "city": "Kyiv",
    "city_ascii": "Kyiv",
    "lat": 50.45,
    "lng": 30.5236,
    "country": "Ukraine",
    "iso2": "UA",
    "iso3": "UKR",
    "admin_name": "Kyyiv, Misto",
    "capital": "primary",
    "population": 2963199.0,
    "is_territory": false,
    "continent": "Europe",
    "guessable": true,
    "rank": 1.0
  },
  {
    "id": 1784176710,
    "city": "Abu Dhabi",
    "city_ascii": "Abu Dhabi",
    "lat": 24.4511,
    "lng": 54.3969,
    "country": "United Arab Emirates",
    "iso2": "AE",
    "iso3": "ARE",
    "admin_name": "Ab\u016b Z\u0327aby",
    "capital": "primary",
    "population": 1483000.0,
    "is_territory": false,
    "continent": "Asia",
    "guessable": true,
    "rank": 2.0
  },
  {
    "id": 1826645935,
    "city": "London",
    "city_ascii": "London",
    "lat": 51.5072,
    "lng": -0.1275,
    "country": "United Kingdom",
    "iso2": "GB",
    "iso3": "GBR",
    "admin_name": "London, City of",
    "capital": "primary",
    "population": 11120000.0,
    "is_territory": false,
    "continent": "Europe",
    "guessable": true,
    "rank": 1.0
  },
  {
    "id": 1834288497,
    "city": "Dodoma",
    "city_ascii": "Dodoma",
    "lat": -6.1835,
    "lng": 35.746,
    "country": "United Republic of Tanzania",
    "iso2": "TZ",
    "iso3": "TZA",
    "admin_name": "Dodoma",
    "capital": "primary",
    "population": 410956.0,
    "is_territory": false,
    "continent": "Africa",
    "guessable": false,
    "rank": 3.0
  },
  {
    "id": 1840006060,
    "city": "Washington",
    "city_ascii": "Washington DC",
    "lat": 38.9047,
    "lng": -77.0163,
    "country": "United States of America",
    "iso2": "US",
    "iso3": "USA",
    "admin_name": "District of Columbia",
    "capital": "primary",
    "population": 5379184.0,
    "is_territory": false,
    "continent": "North America",
    "guessable": true,
    "rank": 9.0
  },
  {
    "id": 1858107000,
    "city": "Montevideo",
    "city_ascii": "Montevideo",
    "lat": -34.8667,
    "lng": -56.1667,
    "country": "Uruguay",
    "iso2": "UY",
    "iso3": "URY",
    "admin_name": "Montevideo",
    "capital": "primary",
    "population": 1319108.0,
    "is_territory": false,
    "continent": "South America",
    "guessable": true,
    "rank": 1.0
  },
  {
    "id": 1860331871,
    "city": "Tashkent",
    "city_ascii": "Tashkent",
    "lat": 41.3,
    "lng": 69.2667,
    "country": "Uzbekistan",
    "iso2": "UZ",
    "iso3": "UZB",
    "admin_name": "Toshkent",
    "capital": "primary",
    "population": 2497900.0,
    "is_territory": false,
    "continent": "Asia",
    "guessable": true,
    "rank": 1.0
  },
  {
    "id": 1548805075,
    "city": "Port-Vila",
    "city_ascii": "Port-Vila",
    "lat": -17.7333,
    "lng": 168.3167,
    "country": "Vanuatu",
    "iso2": "VU",
    "iso3": "VUT",
    "admin_name": "Shefa",
    "capital": "primary",
    "population": 51437.0,
    "is_territory": false,
    "continent": "Oceania",
    "guessable": false,
    "rank": 1.0
  },
  {
    "id": 1336000000,
    "city": "Vatican City",
    "city_ascii": "Vatican City",
    "lat": 41.9033,
    "lng": 12.4534,
    "country": "Vatican",
    "iso2": "VA",
    "iso3": "VAT",
    "admin_name": null,
    "capital": "primary",
    "population": 825.0,
    "is_territory": false,
    "continent": "Europe",
    "guessable": true,
    "rank": 1.0
  },
  {
    "id": 1862748204,
    "city": "Caracas",
    "city_ascii": "Caracas",
    "lat": 10.5,
    "lng": -66.9333,
    "country": "Venezuela",
    "iso2": "VE",
    "iso3": "VEN",
    "admin_name": "Distrito Capital",
    "capital": "primary",
    "population": 1943901.0,
    "is_territory": false,
    "continent": "South America",
    "guessable": true,
    "rank": 1.0
  },
  {
    "id": 1704413791,
    "city": "Hanoi",
    "city_ascii": "Hanoi",
    "lat": 21.0245,
    "lng": 105.8412,
    "country": "Vietnam",
    "iso2": "VN",
    "iso3": "VNM",
    "admin_name": "H\u00e0 N\u1ed9i",
    "capital": "primary",
    "population": 8246600.0,
    "is_territory": false,
    "continent": "Asia",
    "guessable": true,
    "rank": 2.0
  },
  {
    "id": 1887750814,
    "city": "Sanaa",
    "city_ascii": "Sanaa",
    "lat": 15.35,
    "lng": 44.2,
    "country": "Yemen",
    "iso2": "YE",
    "iso3": "YEM",
    "admin_name": "Am\u0101nat al \u2018\u0100\u015fimah",
    "capital": "primary",
    "population": 2957000.0,
    "is_territory": false,
    "continent": "Asia",
    "guessable": false,
    "rank": 1.0
  },
  {
    "id": 1894157390,
    "city": "Lusaka",
    "city_ascii": "Lusaka",
    "lat": -15.4167,
    "lng": 28.2833,
    "country": "Zambia",
    "iso2": "ZM",
    "iso3": "ZMB",
    "admin_name": "Lusaka",
    "capital": "primary",
    "population": 1742979.0,
    "is_territory": false,
    "continent": "Africa",
    "guessable": false,
    "rank": 1.0
  },
  {
    "id": 1716196799,
    "city": "Harare",
    "city_ascii": "Harare",
    "lat": -17.8292,
    "lng": 31.0522,
    "country": "Zimbabwe",
    "iso2": "ZW",
    "iso3": "ZWE",
    "admin_name": "Harare",
    "capital": "primary",
    "population": 2150000.0,
    "is_territory": false,
    "continent": "Africa",
    "guessable": false,
    "rank": 1.0
  },
  {
    "id": 1076532519,
    "city": "S\u00e3o Paulo",
    "city_ascii": "Sao Paulo",
    "lat": -23.5504,
    "lng": -46.6339,
    "country": "Brazil",
    "iso2": "BR",
    "iso3": "BRA",
    "admin_name": "S\u00e3o Paulo",
    "capital": "admin",
    "population": 22495000.0
  },
  {
    "id": 1710680650,
    "city": "Cape Town",
    "city_ascii": "Cape Town",
    "lat": -33.925,
    "lng": 18.425,
    "country": "South Africa",
    "iso2": "ZA",
    "iso3": "ZAF",
    "admin_name": "Western Cape",
    "capital": "admin",
    "population": 433688.0,
    "is_territory": false,
    "continent": "Africa",
    "guessable": true,
    "rank": 7.0
  },
  {
    "id": 1710495933,
    "city": "Bloemfontein",
    "city_ascii": "Bloemfontein",
    "lat": -29.1,
    "lng": 26.2167,
    "country": "South Africa",
    "iso2": "ZA",
    "iso3": "ZAF",
    "admin_name": "Free State",
    "capital": "admin",
    "population": 256185.0,
    "is_territory": false,
    "continent": "Africa",
    "guessable": false,
    "rank": 13.0
  },
  {
    "id": 1356226629,
    "city": "Mumbai",
    "city_ascii": "Mumbai",
    "lat": 19.0758,
    "lng": 72.8775,
    "country": "India",
    "iso2": "IN",
    "iso3": "IND",
    "admin_name": "Mah\u0101r\u0101shtra",
    "capital": "admin",
    "population": 22186000.0
  },
  {
    "id": 1156073548,
    "city": "Shanghai",
    "city_ascii": "Shanghai",
    "lat": 31.1667,
    "lng": 121.4667,
    "country": "China",
    "iso2": "CN",
    "iso3": "CHN",
    "admin_name": "Shanghai",
    "capital": "admin",
    "population": 22118000.0
  },
  {
    "id": 1156237133,
    "city": "Guangzhou",
    "city_ascii": "Guangzhou",
    "lat": 23.1288,
    "lng": 113.259,
    "country": "China",
    "iso2": "CN",
    "iso3": "CHN",
    "admin_name": "Guangdong",
    "capital": "admin",
    "population": 21489000.0
  },
  {
    "id": 1840034016,
    "city": "New York",
    "city_ascii": "New York",
    "lat": 40.6943,
    "lng": -73.9249,
    "country": "United States of America",
    "iso2": "US",
    "iso3": "USA",
    "admin_name": "New York",
    "capital": null,
    "population": 18713220.0
  },
  {
    "id": 1356060520,
    "city": "Kolk\u0101ta",
    "city_ascii": "Kolkata",
    "lat": 22.5727,
    "lng": 88.3639,
    "country": "India",
    "iso2": "IN",
    "iso3": "IND",
    "admin_name": "West Bengal",
    "capital": "admin",
    "population": 18698000.0
  },
  {
    "id": 1392419823,
    "city": "\u014csaka",
    "city_ascii": "Osaka",
    "lat": 34.752,
    "lng": 135.4582,
    "country": "Japan",
    "iso2": "JP",
    "iso3": "JPN",
    "admin_name": "\u014csaka",
    "capital": "admin",
    "population": 15490000.0
  },
  {
    "id": 1566593751,
    "city": "Lagos",
    "city_ascii": "Lagos",
    "lat": 6.45,
    "lng": 3.4,
    "country": "Nigeria",
    "iso2": "NG",
    "iso3": "NGA",
    "admin_name": "Lagos",
    "capital": "minor",
    "population": 15487000.0
  },
  {
    "id": 1792756324,
    "city": "Istanbul",
    "city_ascii": "Istanbul",
    "lat": 41.01,
    "lng": 28.9603,
    "country": "Turkey",
    "iso2": "TR",
    "iso3": "TUR",
    "admin_name": "\u0130stanbul",
    "capital": "admin",
    "population": 15311000.0
  },
  {
    "id": 1586129469,
    "city": "Karachi",
    "city_ascii": "Karachi",
    "lat": 24.86,
    "lng": 67.01,
    "country": "Pakistan",
    "iso2": "PK",
    "iso3": "PAK",
    "admin_name": "Sindh",
    "capital": "admin",
    "population": 15292000.0
  },
  {
    "id": 1156158707,
    "city": "Shenzhen",
    "city_ascii": "Shenzhen",
    "lat": 22.535,
    "lng": 114.054,
    "country": "China",
    "iso2": "CN",
    "iso3": "CHN",
    "admin_name": "Guangdong",
    "capital": "minor",
    "population": 14678000.0
  },
  {
    "id": 1356410365,
    "city": "Bangalore",
    "city_ascii": "Bangalore",
    "lat": 12.9791,
    "lng": 77.5913,
    "country": "India",
    "iso2": "IN",
    "iso3": "IND",
    "admin_name": "Karn\u0101taka",
    "capital": "admin",
    "population": 13999000.0
  },
  {
    "id": 1704774326,
    "city": "Ho Chi Minh City",
    "city_ascii": "Ho Chi Minh City",
    "lat": 10.8167,
    "lng": 106.6333,
    "country": "Vietnam",
    "iso2": "VN",
    "iso3": "VNM",
    "admin_name": "H\u1ed3 Ch\u00ed Minh",
    "capital": "admin",
    "population": 13954000.0
  },
  {
    "id": 1840020491,
    "city": "Los Angeles",
    "city_ascii": "Los Angeles",
    "lat": 34.1139,
    "lng": -118.4068,
    "country": "United States of America",
    "iso2": "US",
    "iso3": "USA",
    "admin_name": "California",
    "capital": null,
    "population": 12750807.0
  },
  {
    "id": 1076887657,
    "city": "Rio de Janeiro",
    "city_ascii": "Rio de Janeiro",
    "lat": -22.9083,
    "lng": -43.1964,
    "country": "Brazil",
    "iso2": "BR",
    "iso3": "BRA",
    "admin_name": "Rio de Janeiro",
    "capital": "admin",
    "population": 12486000.0
  },
  {
    "id": 1156421555,
    "city": "Chengdu",
    "city_ascii": "Chengdu",
    "lat": 30.66,
    "lng": 104.0633,
    "country": "China",
    "iso2": "CN",
    "iso3": "CHN",
    "admin_name": "Sichuan",
    "capital": "admin",
    "population": 11920000.0
  },
  {
    "id": 1156256829,
    "city": "Baoding",
    "city_ascii": "Baoding",
    "lat": 38.8671,
    "lng": 115.4845,
    "country": "China",
    "iso2": "CN",
    "iso3": "CHN",
    "admin_name": "Hebei",
    "capital": null,
    "population": 11860000.0
  },
  {
    "id": 1356374944,
    "city": "Chennai",
    "city_ascii": "Chennai",
    "lat": 13.0825,
    "lng": 80.275,
    "country": "India",
    "iso2": "IN",
    "iso3": "IND",
    "admin_name": "Tamil N\u0101du",
    "capital": "admin",
    "population": 11564000.0
  },
  {
    "id": 1586801463,
    "city": "Lahore",
    "city_ascii": "Lahore",
    "lat": 31.5497,
    "lng": 74.3436,
    "country": "Pakistan",
    "iso2": "PK",
    "iso3": "PAK",
    "admin_name": "Punjab",
    "capital": "admin",
    "population": 11148000.0
  },
  {
    "id": 1156174046,
    "city": "Tianjin",
    "city_ascii": "Tianjin",
    "lat": 39.1467,
    "lng": 117.2056,
    "country": "China",
    "iso2": "CN",
    "iso3": "CHN",
    "admin_name": "Tianjin",
    "capital": "admin",
    "population": 10932000.0
  },
  {
    "id": 1156086320,
    "city": "Linyi",
    "city_ascii": "Linyi",
    "lat": 35.0606,
    "lng": 118.3425,
    "country": "China",
    "iso2": "CN",
    "iso3": "CHN",
    "admin_name": "Shandong",
    "capital": null,
    "population": 10820000.0
  },
  {
    "id": 1156217541,
    "city": "Shijiazhuang",
    "city_ascii": "Shijiazhuang",
    "lat": 38.0422,
    "lng": 114.5086,
    "country": "China",
    "iso2": "CN",
    "iso3": "CHN",
    "admin_name": "Hebei",
    "capital": "admin",
    "population": 10784600.0
  },
  {
    "id": 1156183137,
    "city": "Zhengzhou",
    "city_ascii": "Zhengzhou",
    "lat": 34.7492,
    "lng": 113.6605,
    "country": "China",
    "iso2": "CN",
    "iso3": "CHN",
    "admin_name": "Henan",
    "capital": "admin",
    "population": 10136000.0
  },
  {
    "id": 1156192287,
    "city": "Nanyang",
    "city_ascii": "Nanyang",
    "lat": 32.9987,
    "lng": 112.5292,
    "country": "China",
    "iso2": "CN",
    "iso3": "CHN",
    "admin_name": "Henan",
    "capital": null,
    "population": 10013600.0
  },
  {
    "id": 1356871768,
    "city": "Hyder\u0101b\u0101d",
    "city_ascii": "Hyderabad",
    "lat": 17.3617,
    "lng": 78.4747,
    "country": "India",
    "iso2": "IN",
    "iso3": "IND",
    "admin_name": "Telangana",
    "capital": "admin",
    "population": 9840000.0
  },
  {
    "id": 1156117184,
    "city": "Wuhan",
    "city_ascii": "Wuhan",
    "lat": 30.5872,
    "lng": 114.2881,
    "country": "China",
    "iso2": "CN",
    "iso3": "CHN",
    "admin_name": "Hubei",
    "capital": "admin",
    "population": 9729000.0
  },
  {
    "id": 1156957080,
    "city": "Handan",
    "city_ascii": "Handan",
    "lat": 36.6116,
    "lng": 114.4894,
    "country": "China",
    "iso2": "CN",
    "iso3": "CHN",
    "admin_name": "Hebei",
    "capital": "minor",
    "population": 9549700.0
  },
  {
    "id": 1392407472,
    "city": "Nagoya",
    "city_ascii": "Nagoya",
    "lat": 35.1167,
    "lng": 136.9333,
    "country": "Japan",
    "iso2": "JP",
    "iso3": "JPN",
    "admin_name": "Aichi",
    "capital": "admin",
    "population": 9522000.0
  },
  {
    "id": 1156912965,
    "city": "Weifang",
    "city_ascii": "Weifang",
    "lat": 36.7167,
    "lng": 119.1,
    "country": "China",
    "iso2": "CN",
    "iso3": "CHN",
    "admin_name": "Shandong",
    "capital": null,
    "population": 9373000.0
  },
  {
    "id": 1156272098,
    "city": "Zhoukou",
    "city_ascii": "Zhoukou",
    "lat": 33.625,
    "lng": 114.6418,
    "country": "China",
    "iso2": "CN",
    "iso3": "CHN",
    "admin_name": "Henan",
    "capital": "minor",
    "population": 8953172.0
  },
  {
    "id": 1156832475,
    "city": "Ganzhou",
    "city_ascii": "Ganzhou",
    "lat": 25.8292,
    "lng": 114.9336,
    "country": "China",
    "iso2": "CN",
    "iso3": "CHN",
    "admin_name": "Jiangxi",
    "capital": "minor",
    "population": 8677600.0
  },
  {
    "id": 1156241678,
    "city": "Tongshan",
    "city_ascii": "Tongshan",
    "lat": 34.261,
    "lng": 117.1859,
    "country": "China",
    "iso2": "CN",
    "iso3": "CHN",
    "admin_name": "Jiangsu",
    "capital": "minor",
    "population": 8669000.0
  },
  {
    "id": 1840000494,
    "city": "Chicago",
    "city_ascii": "Chicago",
    "lat": 41.8373,
    "lng": -87.6862,
    "country": "United States of America",
    "iso2": "US",
    "iso3": "USA",
    "admin_name": "Illinois",
    "capital": null,
    "population": 8604203.0
  },
  {
    "id": 1156225008,
    "city": "Heze",
    "city_ascii": "Heze",
    "lat": 35.2333,
    "lng": 115.4333,
    "country": "China",
    "iso2": "CN",
    "iso3": "CHN",
    "admin_name": "Shandong",
    "capital": "minor",
    "population": 8287693.0
  },
  {
    "id": 1156936556,
    "city": "Chongqing",
    "city_ascii": "Chongqing",
    "lat": 29.55,
    "lng": 106.5069,
    "country": "China",
    "iso2": "CN",
    "iso3": "CHN",
    "admin_name": "Chongqing",
    "capital": "admin",
    "population": 8261000.0
  },
  {
    "id": 1156248008,
    "city": "Fuyang",
    "city_ascii": "Fuyang",
    "lat": 32.8986,
    "lng": 115.8045,
    "country": "China",
    "iso2": "CN",
    "iso3": "CHN",
    "admin_name": "Anhui",
    "capital": null,
    "population": 8200264.0
  },
  {
    "id": 1156961497,
    "city": "Changsha",
    "city_ascii": "Changsha",
    "lat": 28.1987,
    "lng": 112.9709,
    "country": "China",
    "iso2": "CN",
    "iso3": "CHN",
    "admin_name": "Hunan",
    "capital": "admin",
    "population": 8154700.0
  },
  {
    "id": 1156478242,
    "city": "Dongguan",
    "city_ascii": "Dongguan",
    "lat": 23.0475,
    "lng": 113.7493,
    "country": "China",
    "iso2": "CN",
    "iso3": "CHN",
    "admin_name": "Guangdong",
    "capital": "minor",
    "population": 8142000.0
  },
  {
    "id": 1156504601,
    "city": "Jining",
    "city_ascii": "Jining",
    "lat": 35.4,
    "lng": 116.5667,
    "country": "China",
    "iso2": "CN",
    "iso3": "CHN",
    "admin_name": "Shandong",
    "capital": null,
    "population": 8081905.0
  },
  {
    "id": 1156972469,
    "city": "Jinan",
    "city_ascii": "Jinan",
    "lat": 36.6667,
    "lng": 116.9833,
    "country": "China",
    "iso2": "CN",
    "iso3": "CHN",
    "admin_name": "Shandong",
    "capital": "admin",
    "population": 7967400.0
  },
  {
    "id": 1356081074,
    "city": "Pune",
    "city_ascii": "Pune",
    "lat": 18.5196,
    "lng": 73.8553,
    "country": "India",
    "iso2": "IN",
    "iso3": "IND",
    "admin_name": "Mah\u0101r\u0101shtra",
    "capital": null,
    "population": 7948000.0
  },
  {
    "id": 1156738403,
    "city": "Foshan",
    "city_ascii": "Foshan",
    "lat": 23.0292,
    "lng": 113.1056,
    "country": "China",
    "iso2": "CN",
    "iso3": "CHN",
    "admin_name": "Guangdong",
    "capital": "minor",
    "population": 7905700.0
  },
  {
    "id": 1356304381,
    "city": "Ahmedabad",
    "city_ascii": "Ahmedabad",
    "lat": 23.03,
    "lng": 72.58,
    "country": "India",
    "iso2": "IN",
    "iso3": "IND",
    "admin_name": "Gujar\u0101t",
    "capital": "minor",
    "population": 7717000.0
  },
  {
    "id": 1156644065,
    "city": "Nanjing",
    "city_ascii": "Nanjing",
    "lat": 32.05,
    "lng": 118.7667,
    "country": "China",
    "iso2": "CN",
    "iso3": "CHN",
    "admin_name": "Jiangsu",
    "capital": "admin",
    "population": 7729000.0
  },
  {
    "id": 1156078103,
    "city": "Changchun",
    "city_ascii": "Changchun",
    "lat": 43.9,
    "lng": 125.2,
    "country": "China",
    "iso2": "CN",
    "iso3": "CHN",
    "admin_name": "Jilin",
    "capital": "admin",
    "population": 7674439.0
  },
  {
    "id": 1156904299,
    "city": "Tangshan",
    "city_ascii": "Tangshan",
    "lat": 39.6292,
    "lng": 118.1742,
    "country": "China",
    "iso2": "CN",
    "iso3": "CHN",
    "admin_name": "Hebei",
    "capital": null,
    "population": 7577289.0
  },
  {
    "id": 1156698069,
    "city": "Cangzhou",
    "city_ascii": "Cangzhou",
    "lat": 38.3037,
    "lng": 116.8452,
    "country": "China",
    "iso2": "CN",
    "iso3": "CHN",
    "admin_name": "Hebei",
    "capital": null,
    "population": 7544300.0
  },
  {
    "id": 1834843853,
    "city": "Dar es Salaam",
    "city_ascii": "Dar es Salaam",
    "lat": -6.8,
    "lng": 39.2833,
    "country": "United Republic of Tanzania",
    "iso2": "TZ",
    "iso3": "TZA",
    "admin_name": "Dar es Salaam",
    "capital": "admin",
    "population": 7461000.0
  },
  {
    "id": 1156332710,
    "city": "Hefei",
    "city_ascii": "Hefei",
    "lat": 31.8639,
    "lng": 117.2808,
    "country": "China",
    "iso2": "CN",
    "iso3": "CHN",
    "admin_name": "Anhui",
    "capital": "admin",
    "population": 7457027.0
  },
  {
    "id": 1344982653,
    "city": "Hong Kong",
    "city_ascii": "Hong Kong",
    "lat": 22.3069,
    "lng": 114.1831,
    "country": "China",
    "iso2": "HK",
    "iso3": "HKG",
    "admin_name": null,
    "capital": "admin",
    "population": 7398000.0
  },
  {
    "id": 1156310366,
    "city": "Shaoyang",
    "city_ascii": "Shaoyang",
    "lat": 27.2418,
    "lng": 111.4725,
    "country": "China",
    "iso2": "CN",
    "iso3": "CHN",
    "admin_name": "Hunan",
    "capital": null,
    "population": 7370500.0
  },
  {
    "id": 1156502170,
    "city": "Zhanjiang",
    "city_ascii": "Zhanjiang",
    "lat": 21.1967,
    "lng": 110.4031,
    "country": "China",
    "iso2": "CN",
    "iso3": "CHN",
    "admin_name": "Guangdong",
    "capital": "minor",
    "population": 7332000.0
  },
  {
    "id": 1156805441,
    "city": "Shangqiu",
    "city_ascii": "Shangqiu",
    "lat": 34.4259,
    "lng": 115.6467,
    "country": "China",
    "iso2": "CN",
    "iso3": "CHN",
    "admin_name": "Henan",
    "capital": null,
    "population": 7325300.0
  },
  {
    "id": 1156045365,
    "city": "Nantong",
    "city_ascii": "Nantong",
    "lat": 31.9829,
    "lng": 120.8873,
    "country": "China",
    "iso2": "CN",
    "iso3": "CHN",
    "admin_name": "Jiangsu",
    "capital": "minor",
    "population": 7283622.0
  },
  {
    "id": 1156995410,
    "city": "Yancheng",
    "city_ascii": "Yancheng",
    "lat": 33.3936,
    "lng": 120.1339,
    "country": "China",
    "iso2": "CN",
    "iso3": "CHN",
    "admin_name": "Jiangsu",
    "capital": "minor",
    "population": 7260240.0
  },
  {
    "id": 1156605439,
    "city": "Nanning",
    "city_ascii": "Nanning",
    "lat": 22.8192,
    "lng": 108.315,
    "country": "China",
    "iso2": "CN",
    "iso3": "CHN",
    "admin_name": "Guangxi",
    "capital": "admin",
    "population": 7254100.0
  },
  {
    "id": 1156696884,
    "city": "Hengyang",
    "city_ascii": "Hengyang",
    "lat": 26.8968,
    "lng": 112.5857,
    "country": "China",
    "iso2": "CN",
    "iso3": "CHN",
    "admin_name": "Hunan",
    "capital": null,
    "population": 7243400.0
  },
  {
    "id": 1156184822,
    "city": "Zhumadian",
    "city_ascii": "Zhumadian",
    "lat": 32.9773,
    "lng": 114.0253,
    "country": "China",
    "iso2": "CN",
    "iso3": "CHN",
    "admin_name": "Henan",
    "capital": null,
    "population": 7231234.0
  },
  {
    "id": 1156309382,
    "city": "Shenyang",
    "city_ascii": "Shenyang",
    "lat": 41.8039,
    "lng": 123.4258,
    "country": "China",
    "iso2": "CN",
    "iso3": "CHN",
    "admin_name": "Liaoning",
    "capital": "admin",
    "population": 7208000.0
  },
  {
    "id": 1156294952,
    "city": "Xingtai",
    "city_ascii": "Xingtai",
    "lat": 37.0659,
    "lng": 114.4753,
    "country": "China",
    "iso2": "CN",
    "iso3": "CHN",
    "admin_name": "Hebei",
    "capital": null,
    "population": 7104103.0
  },
  {
    "id": 1156244079,
    "city": "Xi\u2019an",
    "city_ascii": "Xi'an",
    "lat": 34.2667,
    "lng": 108.9,
    "country": "China",
    "iso2": "CN",
    "iso3": "CHN",
    "admin_name": "Shaanxi",
    "capital": "admin",
    "population": 7090000.0
  },
  {
    "id": 1156932948,
    "city": "Yantai",
    "city_ascii": "Yantai",
    "lat": 37.3997,
    "lng": 121.2664,
    "country": "China",
    "iso2": "CN",
    "iso3": "CHN",
    "admin_name": "Shandong",
    "capital": null,
    "population": 6968202.0
  },
  {
    "id": 1156069315,
    "city": "Luoyang",
    "city_ascii": "Luoyang",
    "lat": 34.6587,
    "lng": 112.4245,
    "country": "China",
    "iso2": "CN",
    "iso3": "CHN",
    "admin_name": "Henan",
    "capital": null,
    "population": 6888500.0
  },
  {
    "id": 1156477539,
    "city": "Kunming",
    "city_ascii": "Kunming",
    "lat": 25.0433,
    "lng": 102.7061,
    "country": "China",
    "iso2": "CN",
    "iso3": "CHN",
    "admin_name": "Yunnan",
    "capital": "admin",
    "population": 6850000.0
  },
  {
    "id": 1156405492,
    "city": "Shangrao",
    "city_ascii": "Shangrao",
    "lat": 28.4419,
    "lng": 117.9633,
    "country": "China",
    "iso2": "CN",
    "iso3": "CHN",
    "admin_name": "Jiangxi",
    "capital": "minor",
    "population": 6810700.0
  },
  {
    "id": 1156275243,
    "city": "Hangzhou",
    "city_ascii": "Hangzhou",
    "lat": 30.25,
    "lng": 120.1675,
    "country": "China",
    "iso2": "CN",
    "iso3": "CHN",
    "admin_name": "Zhejiang",
    "capital": "admin",
    "population": 6713000.0
  },
  {
    "id": 1156018927,
    "city": "Bijie",
    "city_ascii": "Bijie",
    "lat": 27.3019,
    "lng": 105.2863,
    "country": "China",
    "iso2": "CN",
    "iso3": "CHN",
    "admin_name": "Guizhou",
    "capital": null,
    "population": 6686100.0
  },
  {
    "id": 1156829655,
    "city": "Quanzhou",
    "city_ascii": "Quanzhou",
    "lat": 24.9139,
    "lng": 118.5858,
    "country": "China",
    "iso2": "CN",
    "iso3": "CHN",
    "admin_name": "Fujian",
    "capital": "minor",
    "population": 6480000.0
  },
  {
    "id": 1840015149,
    "city": "Miami",
    "city_ascii": "Miami",
    "lat": 25.7839,
    "lng": -80.2102,
    "country": "United States of America",
    "iso2": "US",
    "iso3": "USA",
    "admin_name": "Florida",
    "capital": null,
    "population": 6445545.0
  },
  {
    "id": 1156019650,
    "city": "Wuxi",
    "city_ascii": "Wuxi",
    "lat": 31.5667,
    "lng": 120.2833,
    "country": "China",
    "iso2": "CN",
    "iso3": "CHN",
    "admin_name": "Jiangsu",
    "capital": "minor",
    "population": 6372624.0
  },
  {
    "id": 1156200037,
    "city": "Huanggang",
    "city_ascii": "Huanggang",
    "lat": 30.45,
    "lng": 114.875,
    "country": "China",
    "iso2": "CN",
    "iso3": "CHN",
    "admin_name": "Hubei",
    "capital": "minor",
    "population": 6333000.0
  },
  {
    "id": 1156568722,
    "city": "Maoming",
    "city_ascii": "Maoming",
    "lat": 21.6618,
    "lng": 110.9178,
    "country": "China",
    "iso2": "CN",
    "iso3": "CHN",
    "admin_name": "Guangdong",
    "capital": "minor",
    "population": 6313200.0
  },
  {
    "id": 1156762337,
    "city": "Nanchong",
    "city_ascii": "Nanchong",
    "lat": 30.7991,
    "lng": 106.0784,
    "country": "China",
    "iso2": "CN",
    "iso3": "CHN",
    "admin_name": "Sichuan",
    "capital": "minor",
    "population": 6278614.0
  },
  {
    "id": 1156539782,
    "city": "Zunyi",
    "city_ascii": "Zunyi",
    "lat": 27.705,
    "lng": 106.9336,
    "country": "China",
    "iso2": "CN",
    "iso3": "CHN",
    "admin_name": "Guizhou",
    "capital": null,
    "population": 6270700.0
  },
  {
    "id": 1156747998,
    "city": "Qujing",
    "city_ascii": "Qujing",
    "lat": 25.5102,
    "lng": 103.8029,
    "country": "China",
    "iso2": "CN",
    "iso3": "CHN",
    "admin_name": "Yunnan",
    "capital": null,
    "population": 6155400.0
  },
  {
    "id": 1156273453,
    "city": "Xinyang",
    "city_ascii": "Xinyang",
    "lat": 32.1264,
    "lng": 114.0672,
    "country": "China",
    "iso2": "CN",
    "iso3": "CHN",
    "admin_name": "Henan",
    "capital": null,
    "population": 6109106.0
  },
  {
    "id": 1156260378,
    "city": "Jieyang",
    "city_ascii": "Jieyang",
    "lat": 23.5533,
    "lng": 116.3649,
    "country": "China",
    "iso2": "CN",
    "iso3": "CHN",
    "admin_name": "Guangdong",
    "capital": "minor",
    "population": 6089400.0
  },
  {
    "id": 1356718332,
    "city": "Allah\u0101b\u0101d",
    "city_ascii": "Allahabad",
    "lat": 25.45,
    "lng": 81.85,
    "country": "India",
    "iso2": "IN",
    "iso3": "IND",
    "admin_name": "Uttar Pradesh",
    "capital": null,
    "population": 5954391.0
  },
  {
    "id": 1156901312,
    "city": "Yulin",
    "city_ascii": "Yulin",
    "lat": 22.6293,
    "lng": 110.1507,
    "country": "China",
    "iso2": "CN",
    "iso3": "CHN",
    "admin_name": "Guangxi",
    "capital": "minor",
    "population": 5849700.0
  },
  {
    "id": 1156449091,
    "city": "Changde",
    "city_ascii": "Changde",
    "lat": 29.0397,
    "lng": 111.6839,
    "country": "China",
    "iso2": "CN",
    "iso3": "CHN",
    "admin_name": "Hunan",
    "capital": "minor",
    "population": 5827200.0
  },
  {
    "id": 1156006600,
    "city": "Liaocheng",
    "city_ascii": "Liaocheng",
    "lat": 36.45,
    "lng": 115.9833,
    "country": "China",
    "iso2": "CN",
    "iso3": "CHN",
    "admin_name": "Shandong",
    "capital": "minor",
    "population": 5789863.0
  },
  {
    "id": 1156112588,
    "city": "Qingdao",
    "city_ascii": "Qingdao",
    "lat": 36.1167,
    "lng": 120.4,
    "country": "China",
    "iso2": "CN",
    "iso3": "CHN",
    "admin_name": "Shandong",
    "capital": "minor",
    "population": 5775000.0
  },
  {
    "id": 1840019440,
    "city": "Dallas",
    "city_ascii": "Dallas",
    "lat": 32.7936,
    "lng": -96.7662,
    "country": "United States of America",
    "iso2": "US",
    "iso3": "USA",
    "admin_name": "Texas",
    "capital": null,
    "population": 5743938.0
  },
  {
    "id": 1156127660,
    "city": "Nangandao",
    "city_ascii": "Nangandao",
    "lat": 35.2992,
    "lng": 113.8851,
    "country": "China",
    "iso2": "CN",
    "iso3": "CHN",
    "admin_name": "Henan",
    "capital": "minor",
    "population": 5708191.0
  },
  {
    "id": 1156107325,
    "city": "Xiangyang",
    "city_ascii": "Xiangyang",
    "lat": 32.0654,
    "lng": 112.1531,
    "country": "China",
    "iso2": "CN",
    "iso3": "CHN",
    "admin_name": "Hubei",
    "capital": "minor",
    "population": 5680000.0
  },
  {
    "id": 1840000673,
    "city": "Philadelphia",
    "city_ascii": "Philadelphia",
    "lat": 40.0077,
    "lng": -75.1339,
    "country": "United States of America",
    "iso2": "US",
    "iso3": "USA",
    "admin_name": "Pennsylvania",
    "capital": null,
    "population": 5649300.0
  },
  {
    "id": 1818925479,
    "city": "Giza",
    "city_ascii": "Giza",
    "lat": 29.987,
    "lng": 31.2118,
    "country": "Egypt",
    "iso2": "EG",
    "iso3": "EGY",
    "admin_name": "Al J\u012bzah",
    "capital": "admin",
    "population": 5598402.0
  },
  {
    "id": 1156499624,
    "city": "Lu\u2019an",
    "city_ascii": "Lu'an",
    "lat": 31.7542,
    "lng": 116.5078,
    "country": "China",
    "iso2": "CN",
    "iso3": "CHN",
    "admin_name": "Anhui",
    "capital": "minor",
    "population": 5611701.0
  },
  {
    "id": 1156924687,
    "city": "Zhaotong",
    "city_ascii": "Zhaotong",
    "lat": 27.3328,
    "lng": 103.7144,
    "country": "China",
    "iso2": "CN",
    "iso3": "CHN",
    "admin_name": "Yunnan",
    "capital": null,
    "population": 5591000.0
  },
  {
    "id": 1156229590,
    "city": "Yichun",
    "city_ascii": "Yichun",
    "lat": 27.8041,
    "lng": 114.383,
    "country": "China",
    "iso2": "CN",
    "iso3": "CHN",
    "admin_name": "Jiangxi",
    "capital": "minor",
    "population": 5573200.0
  },
  {
    "id": 1156524080,
    "city": "Dezhou",
    "city_ascii": "Dezhou",
    "lat": 37.4513,
    "lng": 116.3105,
    "country": "China",
    "iso2": "CN",
    "iso3": "CHN",
    "admin_name": "Shandong",
    "capital": "minor",
    "population": 5568235.0
  },
  {
    "id": 1156198892,
    "city": "Nanchang",
    "city_ascii": "Nanchang",
    "lat": 28.6842,
    "lng": 115.8872,
    "country": "China",
    "iso2": "CN",
    "iso3": "CHN",
    "admin_name": "Jiangxi",
    "capital": "admin",
    "population": 5545500.0
  },
  {
    "id": 1156095188,
    "city": "Tai\u2019an",
    "city_ascii": "Tai'an",
    "lat": 36.2001,
    "lng": 117.0809,
    "country": "China",
    "iso2": "CN",
    "iso3": "CHN",
    "admin_name": "Shandong",
    "capital": null,
    "population": 5494207.0
  },
  {
    "id": 1156834076,
    "city": "Dazhou",
    "city_ascii": "Dazhou",
    "lat": 31.2152,
    "lng": 107.4947,
    "country": "China",
    "iso2": "CN",
    "iso3": "CHN",
    "admin_name": "Sichuan",
    "capital": "minor",
    "population": 5468097.0
  },
  {
    "id": 1840020925,
    "city": "Houston",
    "city_ascii": "Houston",
    "lat": 29.7863,
    "lng": -95.3889,
    "country": "United States of America",
    "iso2": "US",
    "iso3": "USA",
    "admin_name": "Texas",
    "capital": null,
    "population": 5464251.0
  },
  {
    "id": 1484950208,
    "city": "Guadalajara",
    "city_ascii": "Guadalajara",
    "lat": 20.6767,
    "lng": -103.3475,
    "country": "Mexico",
    "iso2": "MX",
    "iso3": "MEX",
    "admin_name": "Jalisco",
    "capital": "admin",
    "population": 5437000.0
  },
  {
    "id": 1156694479,
    "city": "Yongzhou",
    "city_ascii": "Yongzhou",
    "lat": 26.4515,
    "lng": 111.5953,
    "country": "China",
    "iso2": "CN",
    "iso3": "CHN",
    "admin_name": "Hunan",
    "capital": null,
    "population": 5452100.0
  },
  {
    "id": 1840013660,
    "city": "Atlanta",
    "city_ascii": "Atlanta",
    "lat": 33.7627,
    "lng": -84.4224,
    "country": "United States of America",
    "iso2": "US",
    "iso3": "USA",
    "admin_name": "Georgia",
    "capital": "admin",
    "population": 5449398.0
  },